city,city_ascii,state_id,state_name,county_fips,county_name,lat,lng
New York,New York,NY,New York,36061,New York,40.6943,-73.9249
Los Angeles,Los Angeles,CA,California,6037,Los Angeles,34.1139,-118.4068
Chicago,Chicago,IL,Illinois,17031,Cook,41.8373,-87.6862
Miami,Miami,FL,Florida,12086,Miami-Dade,25.7839,-80.2102
Dallas,Dallas,TX,Texas,48113,Dallas,32.7936,-96.7662
Philadelphia,Philadelphia,PA,Pennsylvania,42101,Philadelphia,40.0077,-75.1339
Houston,Houston,TX,Texas,48201,Harris,29.7863,-95.3889
Atlanta,Atlanta,GA,Georgia,13121,Fulton,33.7627,-84.4224
Washington,Washington,DC,District of Columbia,11001,District of Columbia,38.9047,-77.0163
Boston,Boston,MA,Massachusetts,25025,Suffolk,42.3188,-71.0846
Phoenix,Phoenix,AZ,Arizona,4013,Maricopa,33.5722,-112.0891
Seattle,Seattle,WA,Washington,53033,King,47.6211,-122.3244
San Francisco,San Francisco,CA,California,6075,San Francisco,37.7562,-122.443
Detroit,Detroit,MI,Michigan,26163,Wayne,42.3834,-83.1024
San Diego,San Diego,CA,California,6073,San Diego,32.8312,-117.1225
Minneapolis,Minneapolis,MN,Minnesota,27053,Hennepin,44.9635,-93.2678
Tampa,Tampa,FL,Florida,12057,Hillsborough,27.9942,-82.4451
Denver,Denver,CO,Colorado,8031,Denver,39.7621,-104.8759
Brooklyn,Brooklyn,NY,New York,36047,Kings,40.6501,-73.9496
Queens,Queens,NY,New York,36081,Queens,40.7498,-73.7976
Riverside,Riverside,CA,California,6065,Riverside,33.9381,-117.3948
Baltimore,Baltimore,MD,Maryland,24510,Baltimore,39.3051,-76.6144
Las Vegas,Las Vegas,NV,Nevada,32003,Clark,36.2333,-115.2654
Portland,Portland,OR,Oregon,41051,Multnomah,45.5372,-122.65
San Antonio,San Antonio,TX,Texas,48029,Bexar,29.4658,-98.5253
St. Louis,St. Louis,MO,Missouri,29510,St. Louis,38.6358,-90.2451
Sacramento,Sacramento,CA,California,6067,Sacramento,38.5667,-121.4683
Orlando,Orlando,FL,Florida,12095,Orange,28.4772,-81.3369
San Jose,San Jose,CA,California,6085,Santa Clara,37.3019,-121.8486
Cleveland,Cleveland,OH,Ohio,39035,Cuyahoga,41.4767,-81.6804
Pittsburgh,Pittsburgh,PA,Pennsylvania,42003,Allegheny,40.4396,-79.9762
Austin,Austin,TX,Texas,48453,Travis,30.3004,-97.7522
Cincinnati,Cincinnati,OH,Ohio,39061,Hamilton,39.1413,-84.5061
Kansas City,Kansas City,MO,Missouri,29095,Jackson,39.1239,-94.5541
Manhattan,Manhattan,NY,New York,36061,New York,40.7834,-73.9662
Indianapolis,Indianapolis,IN,Indiana,18097,Marion,39.7771,-86.1458
Columbus,Columbus,OH,Ohio,39049,Franklin,39.9862,-82.985
Charlotte,Charlotte,NC,North Carolina,37119,Mecklenburg,35.208,-80.8304
Virginia Beach,Virginia Beach,VA,Virginia,51810,Virginia Beach,36.7335,-76.0435
Bronx,Bronx,NY,New York,36005,Bronx,40.8501,-73.8662
Milwaukee,Milwaukee,WI,Wisconsin,55079,Milwaukee,43.0642,-87.9673
Providence,Providence,RI,Rhode Island,44007,Providence,41.823,-71.4187
Jacksonville,Jacksonville,FL,Florida,12031,Duval,30.3322,-81.6749
Salt Lake City,Salt Lake City,UT,Utah,49035,Salt Lake,40.7777,-111.9306
Nashville,Nashville,TN,Tennessee,47037,Davidson,36.1715,-86.7843
Richmond,Richmond,VA,Virginia,51760,Richmond,37.5295,-77.4756
Memphis,Memphis,TN,Tennessee,47157,Shelby,35.1046,-89.9773
Raleigh,Raleigh,NC,North Carolina,37183,Wake,35.8325,-78.6435
New Orleans,New Orleans,LA,Louisiana,22071,Orleans,30.0687,-89.9288
Louisville,Louisville,KY,Kentucky,21111,Jefferson,38.1663,-85.6485
Oklahoma City,Oklahoma City,OK,Oklahoma,40109,Oklahoma,35.4676,-97.5136
Bridgeport,Bridgeport,CT,Connecticut,9001,Fairfield,41.1918,-73.1953
Buffalo,Buffalo,NY,New York,36029,Erie,42.9016,-78.8487
Fort Worth,Fort Worth,TX,Texas,48439,Tarrant,32.7811,-97.3473
Hartford,Hartford,CT,Connecticut,9003,Hartford,41.7661,-72.6834
Tucson,Tucson,AZ,Arizona,4019,Pima,32.1545,-110.8782
Omaha,Omaha,NE,Nebraska,31055,Douglas,41.2627,-96.0522
El Paso,El Paso,TX,Texas,48141,El Paso,31.8479,-106.4309
Honolulu,Honolulu,HI,Hawaii,15003,Honolulu,21.3294,-157.846
McAllen,McAllen,TX,Texas,48215,Hidalgo,26.2273,-98.2471
Albuquerque,Albuquerque,NM,New Mexico,35001,Bernalillo,35.1053,-106.6464
Birmingham,Birmingham,AL,Alabama,1073,Jefferson,33.5277,-86.7987
Sarasota,Sarasota,FL,Florida,12115,Sarasota,27.3386,-82.5431
Dayton,Dayton,OH,Ohio,39113,Montgomery,39.7797,-84.1998
Rochester,Rochester,NY,New York,36055,Monroe,43.168,-77.6162
Fresno,Fresno,CA,California,6019,Fresno,36.7831,-119.7941
Allentown,Allentown,PA,Pennsylvania,42077,Lehigh,40.5961,-75.4756
Tulsa,Tulsa,OK,Oklahoma,40143,Tulsa,36.1284,-95.9042
Cape Coral,Cape Coral,FL,Florida,12071,Lee,26.6446,-81.9956
Concord,Concord,CA,California,6013,Contra Costa,37.9722,-122.0016
Colorado Springs,Colorado Springs,CO,Colorado,8041,El Paso,38.8674,-104.7606
Charleston,Charleston,SC,South Carolina,45019,Charleston,32.8153,-79.9628
Springfield,Springfield,MA,Massachusetts,25013,Hampden,42.1155,-72.5395
Grand Rapids,Grand Rapids,MI,Michigan,26081,Kent,42.962,-85.6562
Mission Viejo,Mission Viejo,CA,California,6059,Orange,33.6095,-117.655
Albany,Albany,NY,New York,36001,Albany,42.6664,-73.7987
Knoxville,Knoxville,TN,Tennessee,47093,Knox,35.9692,-83.9496
Bakersfield,Bakersfield,CA,California,6029,Kern,35.3529,-119.0359
Ogden,Ogden,UT,Utah,49057,Weber,41.2278,-111.9682
Baton Rouge,Baton Rouge,LA,Louisiana,22033,East Baton Rouge,30.4418,-91.131
Akron,Akron,OH,Ohio,39153,Summit,41.0798,-81.5219
New Haven,New Haven,CT,Connecticut,9009,New Haven,41.3112,-72.9246
Columbia,Columbia,SC,South Carolina,45079,Richland,34.0376,-80.9037
Mesa,Mesa,AZ,Arizona,4013,Maricopa,33.4017,-111.718
Palm Bay,Palm Bay,FL,Florida,12009,Brevard,27.955,-80.6627
Provo,Provo,UT,Utah,49049,Utah,40.2457,-111.6457
Worcester,Worcester,MA,Massachusetts,25027,Worcester,42.2705,-71.8079
Murrieta,Murrieta,CA,California,6065,Riverside,33.572,-117.1909
Greenville,Greenville,SC,South Carolina,45045,Greenville,34.8353,-82.3647
Wichita,Wichita,KS,Kansas,20173,Sedgwick,37.6896,-97.3442
Toledo,Toledo,OH,Ohio,39095,Lucas,41.6639,-83.5822
Staten Island,Staten Island,NY,New York,36085,Richmond,40.5834,-74.1496
Des Moines,Des Moines,IA,Iowa,19153,Polk,41.5725,-93.6105
Long Beach,Long Beach,CA,California,6037,Los Angeles,33.7981,-118.1675
Port St. Lucie,Port St. Lucie,FL,Florida,12111,St. Lucie,27.2796,-80.3883
Denton,Denton,TX,Texas,48121,Denton,33.2176,-97.1419
Madison,Madison,WI,Wisconsin,55025,Dane,43.0826,-89.3931
Reno,Reno,NV,Nevada,32031,Washoe,39.5497,-119.8483
Harrisburg,Harrisburg,PA,Pennsylvania,42043,Dauphin,40.2752,-76.8843
Little Rock,Little Rock,AR,Arkansas,5119,Pulaski,34.7256,-92.3576
Oakland,Oakland,CA,California,6001,Alameda,37.7903,-122.2165
Durham,Durham,NC,North Carolina,37063,Durham,35.9794,-78.9031
Winston-Salem,Winston-Salem,NC,North Carolina,37067,Forsyth,36.1029,-80.2611
Bonita Springs,Bonita Springs,FL,Florida,12071,Lee,26.3559,-81.7861
Indio,Indio,CA,California,6065,Riverside,33.7346,-116.2346
Palm Coast,Palm Coast,FL,Florida,12035,Flagler,29.5392,-81.246
Chattanooga,Chattanooga,TN,Tennessee,47065,Hamilton,35.0657,-85.2488
Spokane,Spokane,WA,Washington,53063,Spokane,47.6671,-117.433
Syracuse,Syracuse,NY,New York,36067,Onondaga,43.0409,-76.1438
Lancaster,Lancaster,PA,Pennsylvania,42071,Lancaster,40.0421,-76.3012
Arlington,Arlington,TX,Texas,48439,Tarrant,32.6998,-97.125
Stockton,Stockton,CA,California,6077,San Joaquin,37.9765,-121.3109
Poughkeepsie,Poughkeepsie,NY,New York,36027,Dutchess,41.6949,-73.921
Augusta,Augusta,GA,Georgia,13245,Richmond,33.3645,-82.0708
Boise,Boise,ID,Idaho,16001,Ada,43.6007,-116.2312
Oxnard,Oxnard,CA,California,6111,Ventura,34.1963,-119.1815
Scranton,Scranton,PA,Pennsylvania,42069,Lackawanna,41.4044,-75.6649
Modesto,Modesto,CA,California,6099,Stanislaus,37.6374,-121.0028
Kissimmee,Kissimmee,FL,Florida,12097,Osceola,28.3042,-81.4164
Aurora,Aurora,CO,Colorado,8001,Adams,39.7087,-104.7273
Youngstown,Youngstown,OH,Ohio,39099,Mahoning,41.0993,-80.6463
Fayetteville,Fayetteville,AR,Arkansas,5143,Washington,36.0713,-94.166
Anaheim,Anaheim,CA,California,6059,Orange,33.839,-117.8572
Pensacola,Pensacola,FL,Florida,12033,Escambia,30.4427,-87.1886
Victorville,Victorville,CA,California,6071,San Bernardino,34.5277,-117.3536
Lancaster,Lancaster,CA,California,6037,Los Angeles,34.6935,-118.1753
Greensboro,Greensboro,NC,North Carolina,37081,Guilford,36.0956,-79.8269
Corpus Christi,Corpus Christi,TX,Texas,48355,Nueces,27.726,-97.3755
Fort Wayne,Fort Wayne,IN,Indiana,18003,Allen,41.0886,-85.1437
Santa Ana,Santa Ana,CA,California,6059,Orange,33.7366,-117.8819
Flint,Flint,MI,Michigan,26049,Genesee,43.0235,-83.6922
Fayetteville,Fayetteville,NC,North Carolina,37051,Cumberland,35.0846,-78.9776
Jackson,Jackson,MS,Mississippi,28049,Hinds,32.3163,-90.2124
Santa Rosa,Santa Rosa,CA,California,6097,Sonoma,38.4458,-122.7067
Lansing,Lansing,MI,Michigan,26065,Ingham,42.7142,-84.5601
San Juan,San Juan,PR,Puerto Rico,72127,San Juan,18.4037,-66.0636
Lexington,Lexington,KY,Kentucky,21067,Fayette,38.0423,-84.4587
Ann Arbor,Ann Arbor,MI,Michigan,26161,Washtenaw,42.2755,-83.7312
Henderson,Henderson,NV,Nevada,32003,Clark,36.0133,-115.038
Huntsville,Huntsville,AL,Alabama,1089,Madison,34.6988,-86.6412
Mobile,Mobile,AL,Alabama,1097,Mobile,30.6783,-88.1162
Fort Collins,Fort Collins,CO,Colorado,8069,Larimer,40.5478,-105.0656
Asheville,Asheville,NC,North Carolina,37021,Buncombe,35.5704,-82.5536
Santa Clarita,Santa Clarita,CA,California,6037,Los Angeles,34.4175,-118.4964
St. Paul,St. Paul,MN,Minnesota,27123,Ramsey,44.9477,-93.104
Antioch,Antioch,CA,California,6013,Contra Costa,37.9789,-121.7958
Lakeland,Lakeland,FL,Florida,12105,Polk,28.0556,-81.9545
Trenton,Trenton,NJ,New Jersey,34021,Mercer,40.2236,-74.7641
Lincoln,Lincoln,NE,Nebraska,31109,Lancaster,40.809,-96.6788
Springfield,Springfield,MO,Missouri,29077,Greene,37.1943,-93.2916
Anchorage,Anchorage,AK,Alaska,2020,Anchorage,61.1508,-149.1091
Plano,Plano,TX,Texas,48085,Collin,33.0502,-96.7487
Irvine,Irvine,CA,California,6059,Orange,33.6772,-117.7738
Davenport,Davenport,IA,Iowa,19163,Scott,41.5563,-90.6052
Rockford,Rockford,IL,Illinois,17201,Winnebago,42.2597,-89.0641
Newark,Newark,NJ,New Jersey,34013,Essex,40.7245,-74.1725
South Bend,South Bend,IN,Indiana,18141,St. Joseph,41.6767,-86.2696
Shreveport,Shreveport,LA,Louisiana,22017,Caddo,32.4656,-93.7956
Round Lake Beach,Round Lake Beach,IL,Illinois,17097,Lake,42.379,-88.0811
Savannah,Savannah,GA,Georgia,13051,Chatham,32.0281,-81.1784
Myrtle Beach,Myrtle Beach,SC,South Carolina,45051,Horry,33.7096,-78.8843
Chula Vista,Chula Vista,CA,California,6073,San Diego,32.6281,-117.0145
Eugene,Eugene,OR,Oregon,41039,Lane,44.0563,-123.1173
Canton,Canton,OH,Ohio,39151,Stark,40.8075,-81.3677
Lubbock,Lubbock,TX,Texas,48303,Lubbock,33.5659,-101.8878
Reading,Reading,PA,Pennsylvania,42011,Berks,40.34,-75.9267
Winter Haven,Winter Haven,FL,Florida,12105,Polk,28.0118,-81.7017
Salem,Salem,OR,Oregon,41047,Marion,44.9231,-123.0246
St. Petersburg,St. Petersburg,FL,Florida,12103,Pinellas,27.7931,-82.6652
Lafayette,Lafayette,LA,Louisiana,22055,Lafayette,30.2084,-92.0323
Laredo,Laredo,TX,Texas,48479,Webb,27.5629,-99.4875
Jersey City,Jersey City,NJ,New Jersey,34017,Hudson,40.7161,-74.0682
Concord,Concord,NC,North Carolina,37025,Cabarrus,35.3933,-80.6366
Columbus,Columbus,GA,Georgia,13215,Muscogee,32.51,-84.8771
Chandler,Chandler,AZ,Arizona,4013,Maricopa,33.2826,-111.8516
McKinney,McKinney,TX,Texas,48085,Collin,33.2015,-96.6669
Scottsdale,Scottsdale,AZ,Arizona,4013,Maricopa,33.6872,-111.8651
Killeen,Killeen,TX,Texas,48027,Bell,31.0754,-97.7296
Tallahassee,Tallahassee,FL,Florida,12073,Leon,30.4551,-84.2526
Peoria,Peoria,IL,Illinois,17143,Peoria,40.752,-89.6153
Wilmington,Wilmington,NC,North Carolina,37129,New Hanover,34.21,-77.8866
Montgomery,Montgomery,AL,Alabama,1101,Montgomery,32.3473,-86.2666
Gilbert,Gilbert,AZ,Arizona,4013,Maricopa,33.3101,-111.7463
Glendale,Glendale,AZ,Arizona,4013,Maricopa,33.5791,-112.2311
North Las Vegas,North Las Vegas,NV,Nevada,32003,Clark,36.288,-115.0901
Chesapeake,Chesapeake,VA,Virginia,51550,Chesapeake,36.6778,-76.3024
Barnstable,Barnstable,MA,Massachusetts,25001,Barnstable,41.6722,-70.3599
Norfolk,Norfolk,VA,Virginia,51710,Norfolk,36.8945,-76.259
Fremont,Fremont,CA,California,6001,Alameda,37.5265,-121.9852
Kennewick,Kennewick,WA,Washington,53005,Benton,46.1978,-119.1732
Garland,Garland,TX,Texas,48113,Dallas,32.91,-96.6305
Irving,Irving,TX,Texas,48113,Dallas,32.8584,-96.9702
Visalia,Visalia,CA,California,6107,Tulare,36.3276,-119.3269
Atlantic City,Atlantic City,NJ,New Jersey,34001,Atlantic,39.3797,-74.4527
Paradise,Paradise,NV,Nevada,32003,Clark,36.0807,-115.1369
Nashua,Nashua,NH,New Hampshire,33011,Hillsborough,42.7491,-71.491
Arlington,Arlington,VA,Virginia,51013,Arlington,38.8786,-77.1011
Hialeah,Hialeah,FL,Florida,12086,Miami-Dade,25.8696,-80.3046
York,York,PA,Pennsylvania,42133,York,39.9651,-76.7315
Evansville,Evansville,IN,Indiana,18163,Vanderburgh,37.9881,-87.5341
Avondale,Avondale,AZ,Arizona,4013,Maricopa,33.3858,-112.3236
Brownsville,Brownsville,TX,Texas,48061,Cameron,25.998,-97.4565
Gulfport,Gulfport,MS,Mississippi,28047,Harrison,30.4271,-89.0703
Appleton,Appleton,WI,Wisconsin,55087,Outagamie,44.2779,-88.3891
Bremerton,Bremerton,WA,Washington,53035,Kitsap,47.5436,-122.7122
Hickory,Hickory,NC,North Carolina,37035,Catawba,35.7425,-81.323
Tacoma,Tacoma,WA,Washington,53053,Pierce,47.2431,-122.4531
San Bernardino,San Bernardino,CA,California,6071,San Bernardino,34.1417,-117.2946
College Station,College Station,TX,Texas,48041,Brazos,30.5852,-96.296
Kalamazoo,Kalamazoo,MI,Michigan,26077,Kalamazoo,42.2749,-85.5882
Thousand Oaks,Thousand Oaks,CA,California,6111,Ventura,34.1914,-118.8755
Roanoke,Roanoke,VA,Virginia,51770,Roanoke,37.2785,-79.958
Fontana,Fontana,CA,California,6071,San Bernardino,34.0968,-117.4599
Moreno Valley,Moreno Valley,CA,California,6065,Riverside,33.9244,-117.2045
North Port,North Port,FL,Florida,12115,Sarasota,27.0577,-82.1975
Fargo,Fargo,ND,North Dakota,38017,Cass,46.8652,-96.8292
Green Bay,Green Bay,WI,Wisconsin,55009,Brown,44.515,-87.9896
Spring Valley,Spring Valley,NV,Nevada,32003,Clark,36.0987,-115.2619
Amarillo,Amarillo,TX,Texas,48375,Potter,35.1988,-101.8311
Portland,Portland,ME,Maine,23005,Cumberland,43.6773,-70.2715
Santa Barbara,Santa Barbara,CA,California,6083,Santa Barbara,34.4285,-119.7202
Gainesville,Gainesville,FL,Florida,12001,Alachua,29.6804,-82.3458
Olympia,Olympia,WA,Washington,53067,Thurston,47.0417,-122.8959
Frisco,Frisco,TX,Texas,48085,Collin,33.1555,-96.8215
Yonkers,Yonkers,NY,New York,36119,Westchester,40.9466,-73.8674
Norwich,Norwich,CT,Connecticut,9011,New London,41.5495,-72.0882
Glendale,Glendale,CA,California,6037,Los Angeles,34.1818,-118.2468
Huntington Beach,Huntington Beach,CA,California,6059,Orange,33.696,-118.0025
Deltona,Deltona,FL,Florida,12127,Volusia,28.905,-81.2137
Aurora,Aurora,IL,Illinois,17089,Kane,41.7637,-88.2901
Tempe,Tempe,AZ,Arizona,4013,Maricopa,33.3881,-111.9318
Overland Park,Overland Park,KS,Kansas,20091,Johnson,38.887,-94.687
Grand Prairie,Grand Prairie,TX,Texas,48113,Dallas,32.6872,-97.0209
Sunrise Manor,Sunrise Manor,NV,Nevada,32003,Clark,36.1785,-115.049
Waco,Waco,TX,Texas,48309,McLennan,31.5598,-97.1881
Salinas,Salinas,CA,California,6053,Monterey,36.6884,-121.6317
Waterbury,Waterbury,CT,Connecticut,9009,New Haven,41.5583,-73.0361
Clarksville,Clarksville,TN,Tennessee,47125,Montgomery,36.5695,-87.342
Cedar Rapids,Cedar Rapids,IA,Iowa,19113,Linn,41.9665,-91.6782
Sioux Falls,Sioux Falls,SD,South Dakota,46099,Minnehaha,43.5397,-96.732
Huntington,Huntington,WV,West Virginia,54011,Cabell,38.4109,-82.4344
Ontario,Ontario,CA,California,6071,San Bernardino,34.0393,-117.6064
Hagerstown,Hagerstown,MD,Maryland,24043,Washington,39.6401,-77.7217
Erie,Erie,PA,Pennsylvania,42049,Erie,42.1168,-80.0733
Vancouver,Vancouver,WA,Washington,53011,Clark,45.6366,-122.5967
Nampa,Nampa,ID,Idaho,16027,Canyon,43.5845,-116.5631
Spartanburg,Spartanburg,SC,South Carolina,45083,Spartanburg,34.9437,-81.9257
Gastonia,Gastonia,NC,North Carolina,37071,Gaston,35.2494,-81.1853
Fort Lauderdale,Fort Lauderdale,FL,Florida,12011,Broward,26.1412,-80.1464
Lorain,Lorain,OH,Ohio,39093,Lorain,41.4409,-82.184
Murfreesboro,Murfreesboro,TN,Tennessee,47149,Rutherford,35.8492,-86.4119
High Point,High Point,NC,North Carolina,37081,Guilford,35.9907,-79.9938
Newport News,Newport News,VA,Virginia,51700,Newport News,37.1051,-76.5185
Rancho Cucamonga,Rancho Cucamonga,CA,California,6071,San Bernardino,34.1248,-117.5666
Hemet,Hemet,CA,California,6065,Riverside,33.7341,-116.9969
Santa Cruz,Santa Cruz,CA,California,6087,Santa Cruz,36.9789,-122.0346
Danbury,Danbury,CT,Connecticut,9001,Fairfield,41.4016,-73.471
Peoria,Peoria,AZ,Arizona,4013,Maricopa,33.7844,-112.2989
Oceanside,Oceanside,CA,California,6073,San Diego,33.2247,-117.3083
Elk Grove,Elk Grove,CA,California,6067,Sacramento,38.416,-121.3842
Pembroke Pines,Pembroke Pines,FL,Florida,12011,Broward,26.0128,-80.3382
Vallejo,Vallejo,CA,California,6095,Solano,38.1133,-122.2358
Garden Grove,Garden Grove,CA,California,6059,Orange,33.7787,-117.9601
Enterprise,Enterprise,NV,Nevada,32003,Clark,36.0164,-115.2208
Medford,Medford,OR,Oregon,41029,Jackson,42.3372,-122.8537
Cary,Cary,NC,North Carolina,37183,Wake,35.782,-78.8191
Marysville,Marysville,WA,Washington,53061,Snohomish,48.0809,-122.1561
Corona,Corona,CA,California,6065,Riverside,33.8616,-117.5649
Ocala,Ocala,FL,Florida,12083,Marion,29.178,-82.1511
Fredericksburg,Fredericksburg,VA,Virginia,51630,Fredericksburg,38.2992,-77.4872
Gainesville,Gainesville,GA,Georgia,13139,Hall,34.2903,-83.8301
Manchester,Manchester,NH,New Hampshire,33011,Hillsborough,42.9848,-71.4447
Bayamón,Bayamon,PR,Puerto Rico,72021,Bayamón,18.3793,-66.1635
Champaign,Champaign,IL,Illinois,17019,Champaign,40.1144,-88.2735
Alexandria,Alexandria,VA,Virginia,51510,Alexandria,38.8185,-77.0861
Hayward,Hayward,CA,California,6001,Alameda,37.6328,-122.0772
Springfield,Springfield,IL,Illinois,17167,Sangamon,39.771,-89.6538
Lakewood,Lakewood,CO,Colorado,8059,Jefferson,39.6977,-105.1168
Lafayette,Lafayette,IN,Indiana,18157,Tippecanoe,40.399,-86.8594
Frederick,Frederick,MD,Maryland,24021,Frederick,39.4336,-77.4141
Lake Charles,Lake Charles,LA,Louisiana,22019,Calcasieu,30.2012,-93.2122
Odessa,Odessa,TX,Texas,48135,Ector,31.8831,-102.3406
Tuscaloosa,Tuscaloosa,AL,Alabama,1125,Tuscaloosa,33.2348,-87.5267
Warner Robins,Warner Robins,GA,Georgia,13153,Houston,32.597,-83.6529
Palmdale,Palmdale,CA,California,6037,Los Angeles,34.5944,-118.1057
Hollywood,Hollywood,FL,Florida,12011,Broward,26.0294,-80.1679
Midland,Midland,TX,Texas,48329,Midland,32.0249,-102.1137
Leesburg,Leesburg,FL,Florida,12069,Lake,28.7657,-81.8996
Port Arthur,Port Arthur,TX,Texas,48245,Jefferson,29.8554,-93.9264
Muskegon,Muskegon,MI,Michigan,26121,Muskegon,43.2281,-86.2563
Macon,Macon,GA,Georgia,13021,Bibb,32.8065,-83.6974
Kansas City,Kansas City,KS,Kansas,20209,Wyandotte,39.1234,-94.7443
Sunnyvale,Sunnyvale,CA,California,6085,Santa Clara,37.3836,-122.0256
Pomona,Pomona,CA,California,6037,Los Angeles,34.0585,-117.7626
Escondido,Escondido,CA,California,6073,San Diego,33.1347,-117.0722
Pasadena,Pasadena,TX,Texas,48201,Harris,29.6583,-95.1499
New Bedford,New Bedford,MA,Massachusetts,25005,Bristol,41.6697,-70.9428
Fairfield,Fairfield,CA,California,6095,Solano,38.2592,-122.0324
Naperville,Naperville,IL,Illinois,17043,DuPage,41.7483,-88.1657
Bellevue,Bellevue,WA,Washington,53033,King,47.5951,-122.1535
Binghamton,Binghamton,NY,New York,36007,Broome,42.1014,-75.9093
Elkhart,Elkhart,IN,Indiana,18039,Elkhart,41.6916,-85.9628
Topeka,Topeka,KS,Kansas,20177,Shawnee,39.0346,-95.6955
Joliet,Joliet,IL,Illinois,17197,Will,41.5189,-88.1499
Beaumont,Beaumont,TX,Texas,48245,Jefferson,30.0849,-94.1451
Paterson,Paterson,NJ,New Jersey,34031,Passaic,40.9147,-74.1624
Merced,Merced,CA,California,6047,Merced,37.3057,-120.4778
Pueblo,Pueblo,CO,Colorado,8101,Pueblo,38.2705,-104.6112
Tyler,Tyler,TX,Texas,48423,Smith,32.3184,-95.3062
Torrance,Torrance,CA,California,6037,Los Angeles,33.8346,-118.3417
Yuma,Yuma,AZ,Arizona,4027,Yuma,32.5992,-114.5488
Metairie,Metairie,LA,Louisiana,22051,Jefferson,29.9977,-90.178
Surprise,Surprise,AZ,Arizona,4013,Maricopa,33.68,-112.4524
Columbia,Columbia,MO,Missouri,29019,Boone,38.9478,-92.3256
Athens,Athens,GA,Georgia,13059,Clarke,33.9508,-83.3689
Roseville,Roseville,CA,California,6061,Placer,38.7703,-121.3196
Thornton,Thornton,CO,Colorado,8001,Adams,39.9197,-104.9438
Miramar,Miramar,FL,Florida,12011,Broward,25.9773,-80.3351
Pasadena,Pasadena,CA,California,6037,Los Angeles,34.1597,-118.139
Mesquite,Mesquite,TX,Texas,48113,Dallas,32.7623,-96.5889
Olathe,Olathe,KS,Kansas,20091,Johnson,38.8832,-94.8198
Santa Maria,Santa Maria,CA,California,6083,Santa Barbara,34.9334,-120.4432
Houma,Houma,LA,Louisiana,22109,Terrebonne,29.5799,-90.7058
Carrollton,Carrollton,TX,Texas,48113,Dallas,32.989,-96.8999
Grand Junction,Grand Junction,CO,Colorado,8077,Mesa,39.0876,-108.5673
Charleston,Charleston,WV,West Virginia,54039,Kanawha,38.3484,-81.6323
Orange,Orange,CA,California,6059,Orange,33.8038,-117.8218
Fullerton,Fullerton,CA,California,6059,Orange,33.8841,-117.9279
Greeley,Greeley,CO,Colorado,8123,Weld,40.4151,-104.7706
Carolina,Carolina,PR,Puerto Rico,72031,Carolina,18.4054,-65.9792
Las Cruces,Las Cruces,NM,New Mexico,35013,Doña Ana,32.3265,-106.7892
Panama City,Panama City,FL,Florida,12005,Bay,30.1995,-85.6004
Harlingen,Harlingen,TX,Texas,48061,Cameron,26.1917,-97.6976
West Valley City,West Valley City,UT,Utah,49035,Salt Lake,40.6889,-112.0115
Hampton,Hampton,VA,Virginia,51650,Hampton,37.0551,-76.363
Warren,Warren,MI,Michigan,26099,Macomb,42.4934,-83.027
Mauldin,Mauldin,SC,South Carolina,45045,Greenville,34.7849,-82.3005
Bloomington,Bloomington,IL,Illinois,17113,McLean,40.4757,-88.9703
Coral Springs,Coral Springs,FL,Florida,12011,Broward,26.2702,-80.2591
Round Rock,Round Rock,TX,Texas,48491,Williamson,30.5254,-97.666
Yakima,Yakima,WA,Washington,53077,Yakima,46.5923,-120.5496
Sterling Heights,Sterling Heights,MI,Michigan,26099,Macomb,42.5809,-83.0305
Kent,Kent,WA,Washington,53033,King,47.3887,-122.2129
Burlington,Burlington,NC,North Carolina,37001,Alamance,36.0758,-79.4686
Bellingham,Bellingham,WA,Washington,53073,Whatcom,48.7543,-122.4687
Santa Clara,Santa Clara,CA,California,6085,Santa Clara,37.3645,-121.968
Racine,Racine,WI,Wisconsin,55101,Racine,42.7274,-87.8135
Greenville,Greenville,NC,North Carolina,37147,Pitt,35.5956,-77.3768
Stamford,Stamford,CT,Connecticut,9001,Fairfield,41.1035,-73.5583
Elizabeth,Elizabeth,NJ,New Jersey,34039,Union,40.6657,-74.1912
Johnson City,Johnson City,TN,Tennessee,47179,Washington,36.3406,-82.3803
Lynchburg,Lynchburg,VA,Virginia,51680,Lynchburg,37.4003,-79.1909
Simi Valley,Simi Valley,CA,California,6111,Ventura,34.2663,-118.749
Fort Smith,Fort Smith,AR,Arkansas,5131,Sebastian,35.3493,-94.3695
Kenosha,Kenosha,WI,Wisconsin,55059,Kenosha,42.5864,-87.8765
Norman,Norman,OK,Oklahoma,40027,Cleveland,35.2335,-97.3471
South Lyon,South Lyon,MI,Michigan,26125,Oakland,42.4614,-83.6526
Boulder,Boulder,CO,Colorado,8013,Boulder,40.0249,-105.2523
Abilene,Abilene,TX,Texas,48441,Taylor,32.4543,-99.7384
Lehigh Acres,Lehigh Acres,FL,Florida,12071,Lee,26.612,-81.6388
Pearland,Pearland,TX,Texas,48039,Brazoria,29.5585,-95.3215
Berkeley,Berkeley,CA,California,6001,Alameda,37.8723,-122.276
Richardson,Richardson,TX,Texas,48113,Dallas,32.9717,-96.7093
Redding,Redding,CA,California,6089,Shasta,40.5698,-122.365
Arvada,Arvada,CO,Colorado,8059,Jefferson,39.8321,-105.1511
East Los Angeles,East Los Angeles,CA,California,6037,Los Angeles,34.0326,-118.1691
St. George,St. George,UT,Utah,49053,Washington,37.077,-113.577
Billings,Billings,MT,Montana,30111,Yellowstone,45.7891,-108.5524
Yuba City,Yuba City,CA,California,6101,Sutter,39.1357,-121.6381
Rochester,Rochester,MN,Minnesota,27109,Olmsted,44.0151,-92.4778
Leominster,Leominster,MA,Massachusetts,25027,Worcester,42.5209,-71.7717
Kingsport,Kingsport,TN,Tennessee,47163,Sullivan,36.5224,-82.5453
Duluth,Duluth,MN,Minnesota,27137,St. Louis,46.7756,-92.1392
Rock Hill,Rock Hill,SC,South Carolina,45091,York,34.9416,-81.0244
Gilroy,Gilroy,CA,California,6085,Santa Clara,37.0047,-121.5855
Cambridge,Cambridge,MA,Massachusetts,25017,Middlesex,42.3759,-71.1185
Sugar Land,Sugar Land,TX,Texas,48157,Fort Bend,29.5935,-95.6357
Texas City,Texas City,TX,Texas,48167,Galveston,29.4128,-94.9658
Iowa City,Iowa City,IA,Iowa,19103,Johnson,41.6559,-91.5303
Saginaw,Saginaw,MI,Michigan,26145,Saginaw,43.4199,-83.9501
Chico,Chico,CA,California,6007,Butte,39.7575,-121.8152
Dover,Dover,DE,Delaware,10001,Kent,39.161,-75.5203
Clearwater,Clearwater,FL,Florida,12103,Pinellas,27.9789,-82.7622
Coeur d'Alene,Coeur d'Alene,ID,Idaho,16055,Kootenai,47.7041,-116.7935
Seaside,Seaside,CA,California,6053,Monterey,36.6224,-121.8191
Independence,Independence,MO,Missouri,29095,Jackson,39.0871,-94.3501
West Jordan,West Jordan,UT,Utah,49035,Salt Lake,40.6024,-112.0008
Brandon,Brandon,FL,Florida,12057,Hillsborough,27.9367,-82.3
Bloomington,Bloomington,IN,Indiana,18105,Monroe,39.1637,-86.5257
El Monte,El Monte,CA,California,6037,Los Angeles,34.0739,-118.0291
North Charleston,North Charleston,SC,South Carolina,45019,Charleston,32.9066,-80.0722
Carlsbad,Carlsbad,CA,California,6073,San Diego,33.1247,-117.2837
St. Cloud,St. Cloud,MN,Minnesota,27145,Stearns,45.5339,-94.1718
Temecula,Temecula,CA,California,6065,Riverside,33.4928,-117.1315
Clovis,Clovis,CA,California,6019,Fresno,36.8278,-119.6831
Meridian,Meridian,ID,Idaho,16001,Ada,43.6112,-116.3968
The Woodlands,The Woodlands,TX,Texas,48339,Montgomery,30.1738,-95.5134
Ponce,Ponce,PR,Puerto Rico,72113,Ponce,18.012,-66.6198
Westminster,Westminster,CO,Colorado,8001,Adams,39.8837,-105.0624
Costa Mesa,Costa Mesa,CA,California,6059,Orange,33.6667,-117.9135
Monroe,Monroe,LA,Louisiana,22073,Ouachita,32.5183,-92.0774
Utica,Utica,NY,New York,36065,Oneida,43.0961,-75.226
Pompano Beach,Pompano Beach,FL,Florida,12011,Broward,26.2428,-80.1312
West Palm Beach,West Palm Beach,FL,Florida,12099,Palm Beach,26.7468,-80.1316
Waterloo,Waterloo,IA,Iowa,19013,Black Hawk,42.492,-92.3522
Everett,Everett,WA,Washington,53061,Snohomish,47.9525,-122.1669
El Centro,El Centro,CA,California,6025,Imperial,32.7867,-115.5586
Santa Fe,Santa Fe,NM,New Mexico,35049,Santa Fe,35.6619,-105.9819
Downey,Downey,CA,California,6037,Los Angeles,33.9379,-118.1312
Spring Hill,Spring Hill,FL,Florida,12053,Hernando,28.4797,-82.53
Lowell,Lowell,MA,Massachusetts,25017,Middlesex,42.6389,-71.3217
Centennial,Centennial,CO,Colorado,8005,Arapahoe,39.5926,-104.8674
Elgin,Elgin,IL,Illinois,17089,Kane,42.0385,-88.3229
Richmond,Richmond,CA,California,6013,Contra Costa,37.9477,-122.339
Broken Arrow,Broken Arrow,OK,Oklahoma,40143,Tulsa,36.0365,-95.7809
Miami Gardens,Miami Gardens,FL,Florida,12086,Miami-Dade,25.9433,-80.2426
Bend,Bend,OR,Oregon,41017,Deschutes,44.0562,-121.3087
Burlington,Burlington,VT,Vermont,50007,Chittenden,44.4877,-73.2314
Jurupa Valley,Jurupa Valley,CA,California,6065,Riverside,34.001,-117.4705
Sandy Springs,Sandy Springs,GA,Georgia,13121,Fulton,33.9366,-84.3703
Gresham,Gresham,OR,Oregon,41051,Multnomah,45.5023,-122.4413
Lewisville,Lewisville,TX,Texas,48121,Denton,33.0452,-96.9823
Hillsboro,Hillsboro,OR,Oregon,41067,Washington,45.5272,-122.9361
San Buenaventura,San Buenaventura,CA,California,6111,Ventura,34.2741,-119.2314
Jacksonville,Jacksonville,NC,North Carolina,37133,Onslow,34.7288,-77.3941
Pottstown,Pottstown,PA,Pennsylvania,42091,Montgomery,40.2507,-75.6444
Inglewood,Inglewood,CA,California,6037,Los Angeles,33.9566,-118.3444
League City,League City,TX,Texas,48167,Galveston,29.4873,-95.1087
Eau Claire,Eau Claire,WI,Wisconsin,55035,Eau Claire,44.8199,-91.4949
Turlock,Turlock,CA,California,6099,Stanislaus,37.5053,-120.8588
Temple,Temple,TX,Texas,48027,Bell,31.1076,-97.3894
Sioux City,Sioux City,IA,Iowa,19193,Woodbury,42.4959,-96.3901
Salisbury,Salisbury,MD,Maryland,24045,Wicomico,38.3756,-75.5867
Davie,Davie,FL,Florida,12011,Broward,26.0789,-80.287
Daly City,Daly City,CA,California,6081,San Mateo,37.6862,-122.4685
Highlands Ranch,Highlands Ranch,CO,Colorado,8035,Douglas,39.5419,-104.9708
Allen,Allen,TX,Texas,48085,Collin,33.1088,-96.6735
West Covina,West Covina,CA,California,6037,Los Angeles,34.0555,-117.9112
Sparks,Sparks,NV,Nevada,32031,Washoe,39.5729,-119.7157
Wichita Falls,Wichita Falls,TX,Texas,48485,Wichita,33.9072,-98.5291
San Mateo,San Mateo,CA,California,6081,San Mateo,37.5521,-122.3122
Columbia,Columbia,MD,Maryland,24027,Howard,39.2004,-76.859
Norwalk,Norwalk,CA,California,6037,Los Angeles,33.9069,-118.0829
Rialto,Rialto,CA,California,6071,San Bernardino,34.1174,-117.3894
Manteca,Manteca,CA,California,6077,San Joaquin,37.7927,-121.2264
Arden-Arcade,Arden-Arcade,CA,California,6067,Sacramento,38.6034,-121.381
El Cajon,El Cajon,CA,California,6073,San Diego,32.8017,-116.9605
Burbank,Burbank,CA,California,6037,Los Angeles,34.1879,-118.3235
Longmont,Longmont,CO,Colorado,8013,Boulder,40.1686,-105.1005
Renton,Renton,WA,Washington,53033,King,47.4784,-122.1919
Vista,Vista,CA,California,6073,San Diego,33.1896,-117.2386
Logan,Logan,UT,Utah,49005,Cache,41.74,-111.8419
Prescott Valley,Prescott Valley,AZ,Arizona,4025,Yavapai,34.5983,-112.3176
Vacaville,Vacaville,CA,California,6095,Solano,38.359,-121.968
Edinburg,Edinburg,TX,Texas,48215,Hidalgo,26.3197,-98.1596
Carmel,Carmel,IN,Indiana,18057,Hamilton,39.965,-86.146
Spokane Valley,Spokane Valley,WA,Washington,53063,Spokane,47.6626,-117.2346
San Angelo,San Angelo,TX,Texas,48451,Tom Green,31.4424,-100.4506
La Crosse,La Crosse,WI,Wisconsin,55063,La Crosse,43.824,-91.2268
Idaho Falls,Idaho Falls,ID,Idaho,16019,Bonneville,43.4872,-112.0362
Holland,Holland,MI,Michigan,26139,Ottawa,42.7677,-86.0985
Charlottesville,Charlottesville,VA,Virginia,51540,Charlottesville,38.0375,-78.4855
Longview,Longview,TX,Texas,48183,Gregg,32.5193,-94.7621
Tracy,Tracy,CA,California,6077,San Joaquin,37.7269,-121.4522
Boca Raton,Boca Raton,FL,Florida,12099,Palm Beach,26.3752,-80.108
Lafayette,Lafayette,CO,Colorado,8013,Boulder,39.9949,-105.0997
Lee's Summit,Lee's Summit,MO,Missouri,29095,Jackson,38.9172,-94.3816
Rio Rancho,Rio Rancho,NM,New Mexico,35043,Sandoval,35.2872,-106.6981
South Fulton,South Fulton,GA,Georgia,13121,Fulton,33.6269,-84.5802
Beaverton,Beaverton,OR,Oregon,41067,Washington,45.4779,-122.8168
Lawrence,Lawrence,KS,Kansas,20045,Douglas,38.9597,-95.2641
Bismarck,Bismarck,ND,North Dakota,38015,Burleigh,46.8144,-100.7694
Orem,Orem,UT,Utah,49049,Utah,40.2983,-111.6992
Middletown,Middletown,OH,Ohio,39017,Butler,39.5032,-84.366
San Tan Valley,San Tan Valley,AZ,Arizona,4021,Pinal,33.1879,-111.5472
San Marcos,San Marcos,CA,California,6073,San Diego,33.135,-117.1744
Sandy,Sandy,UT,Utah,49035,Salt Lake,40.571,-111.8505
Federal Way,Federal Way,WA,Washington,53033,King,47.3091,-122.3358
Mandeville,Mandeville,LA,Louisiana,22103,St. Tammany,30.3751,-90.0904
Hesperia,Hesperia,CA,California,6071,San Bernardino,34.3975,-117.3147
Brockton,Brockton,MA,Massachusetts,25023,Plymouth,42.0821,-71.0242
Compton,Compton,CA,California,6037,Los Angeles,33.893,-118.2275
Riverview,Riverview,FL,Florida,12057,Hillsborough,27.8227,-82.3023
Fishers,Fishers,IN,Indiana,18057,Hamilton,39.9589,-85.9661
Sunrise,Sunrise,FL,Florida,12011,Broward,26.1547,-80.2997
Bowling Green,Bowling Green,KY,Kentucky,21227,Warren,36.9719,-86.4373
Roswell,Roswell,GA,Georgia,13121,Fulton,34.0391,-84.3513
Menifee,Menifee,CA,California,6065,Riverside,33.6909,-117.1849
Plantation,Plantation,FL,Florida,12011,Broward,26.126,-80.2617
Dover,Dover,NH,New Hampshire,33017,Strafford,43.1887,-70.8845
Quincy,Quincy,MA,Massachusetts,25021,Norfolk,42.2516,-71.0183
Portsmouth,Portsmouth,VA,Virginia,51740,Portsmouth,36.8468,-76.354
Chino,Chino,CA,California,6071,San Bernardino,33.9836,-117.6654
Lynn,Lynn,MA,Massachusetts,25009,Essex,42.4779,-70.9663
Edmond,Edmond,OK,Oklahoma,40109,Oklahoma,35.6689,-97.4159
Hanford,Hanford,CA,California,6031,Kings,36.3274,-119.6549
Dearborn,Dearborn,MI,Michigan,26163,Wayne,42.3127,-83.2129
Livonia,Livonia,MI,Michigan,26163,Wayne,42.3972,-83.3733
South Gate,South Gate,CA,California,6037,Los Angeles,33.9448,-118.1926
Vineland,Vineland,NJ,New Jersey,34011,Cumberland,39.4653,-74.9981
Florence,Florence,SC,South Carolina,45041,Florence,34.1781,-79.7877
Portsmouth,Portsmouth,NH,New Hampshire,33015,Rockingham,43.058,-70.7826
Slidell,Slidell,LA,Louisiana,22103,St. Tammany,30.2881,-89.7826
Lawton,Lawton,OK,Oklahoma,40031,Comanche,34.6176,-98.4203
Kirkland,Kirkland,WA,Washington,53033,King,47.6974,-122.2054
Missoula,Missoula,MT,Montana,30063,Missoula,46.875,-114.0214
Auburn,Auburn,AL,Alabama,1081,Lee,32.6087,-85.4899
Rapid City,Rapid City,SD,South Dakota,46103,Pennington,44.0716,-103.2204
Terre Haute,Terre Haute,IN,Indiana,18167,Vigo,39.4654,-87.3763
Suffolk,Suffolk,VA,Virginia,51800,Suffolk,36.6953,-76.6398
Blacksburg,Blacksburg,VA,Virginia,51121,Montgomery,37.23,-80.4279
Mount Pleasant,Mount Pleasant,SC,South Carolina,45019,Charleston,32.8538,-79.8204
Carson,Carson,CA,California,6037,Los Angeles,33.8374,-118.2559
Conroe,Conroe,TX,Texas,48339,Montgomery,30.3239,-95.4825
Alafaya,Alafaya,FL,Florida,12095,Orange,28.5278,-81.1865
Livermore,Livermore,CA,California,6001,Alameda,37.6862,-121.7608
Westminster,Westminster,CA,California,6059,Orange,33.7523,-117.9938
Germantown,Germantown,MD,Maryland,24031,Montgomery,39.1755,-77.2643
Santa Monica,Santa Monica,CA,California,6037,Los Angeles,34.0232,-118.4813
New Braunfels,New Braunfels,TX,Texas,48091,Comal,29.6994,-98.1148
Fall River,Fall River,MA,Massachusetts,25005,Bristol,41.7137,-71.1014
Albany,Albany,GA,Georgia,13095,Dougherty,31.5776,-84.1762
Miami Beach,Miami Beach,FL,Florida,12086,Miami-Dade,25.8171,-80.1396
Norwalk,Norwalk,CT,Connecticut,9001,Fairfield,41.1144,-73.4215
San Leandro,San Leandro,CA,California,6001,Alameda,37.7071,-122.1601
O'Fallon,O'Fallon,MO,Missouri,29183,St. Charles,38.785,-90.7175
Newton,Newton,MA,Massachusetts,25017,Middlesex,42.3316,-71.2085
Muncie,Muncie,IN,Indiana,18035,Delaware,40.1989,-85.395
Citrus Heights,Citrus Heights,CA,California,6067,Sacramento,38.6948,-121.288
State College,State College,PA,Pennsylvania,42027,Centre,40.7909,-77.8568
Town 'n' Country,Town 'n' Country,FL,Florida,12057,Hillsborough,28.0108,-82.576
Decatur,Decatur,IL,Illinois,17115,Macon,39.8556,-88.9337
Jackson,Jackson,MI,Michigan,26075,Jackson,42.2431,-84.4037
Fort Myers,Fort Myers,FL,Florida,12071,Lee,26.6195,-81.8303
Goodyear,Goodyear,AZ,Arizona,4013,Maricopa,33.2613,-112.3622
Dalton,Dalton,GA,Georgia,13313,Whitfield,34.769,-84.9712
Bryan,Bryan,TX,Texas,48041,Brazos,30.6657,-96.3668
Waukegan,Waukegan,IL,Illinois,17097,Lake,42.3697,-87.8716
Hawthorne,Hawthorne,CA,California,6037,Los Angeles,33.9146,-118.3476
Anderson,Anderson,IN,Indiana,18095,Madison,40.0891,-85.6893
Redwood City,Redwood City,CA,California,6081,San Mateo,37.5026,-122.2252
Hoover,Hoover,AL,Alabama,1073,Jefferson,33.3754,-86.8064
Lake Forest,Lake Forest,CA,California,6059,Orange,33.6606,-117.6712
Napa,Napa,CA,California,6055,Napa,38.2976,-122.3011
Whittier,Whittier,CA,California,6037,Los Angeles,33.9678,-118.0188
Clifton,Clifton,NJ,New Jersey,34031,Passaic,40.8631,-74.1575
Largo,Largo,FL,Florida,12103,Pinellas,27.9088,-82.7711
Bloomington,Bloomington,MN,Minnesota,27053,Hennepin,44.8306,-93.3151
Johns Creek,Johns Creek,GA,Georgia,13121,Fulton,34.0333,-84.2027
Newport Beach,Newport Beach,CA,California,6059,Orange,33.6151,-117.8669
Mission,Mission,TX,Texas,48215,Hidalgo,26.2041,-98.3251
Milpitas,Milpitas,CA,California,6085,Santa Clara,37.4339,-121.8921
Troy,Troy,MI,Michigan,26125,Oakland,42.5818,-83.1457
Madera,Madera,CA,California,6039,Madera,36.9631,-120.0782
Joplin,Joplin,MO,Missouri,29097,Jasper,37.0758,-94.5018
Chino Hills,Chino Hills,CA,California,6071,San Bernardino,33.9508,-117.7253
Alhambra,Alhambra,CA,California,6037,Los Angeles,34.084,-118.1355
Franklin,Franklin,TN,Tennessee,47187,Williamson,35.9216,-86.8525
Melbourne,Melbourne,FL,Florida,12009,Brevard,28.1085,-80.6627
Port Huron,Port Huron,MI,Michigan,26147,St. Clair,42.9822,-82.4387
Springfield,Springfield,OH,Ohio,39023,Clark,39.9297,-83.7957
Mountain View,Mountain View,CA,California,6085,Santa Clara,37.4,-122.0796
Zephyrhills,Zephyrhills,FL,Florida,12101,Pasco,28.2408,-82.1796
St. Augustine,St. Augustine,FL,Florida,12109,St. Johns,29.8977,-81.31
Flagstaff,Flagstaff,AZ,Arizona,4005,Coconino,35.1872,-111.6195
Buena Park,Buena Park,CA,California,6059,Orange,33.8572,-118.0046
Pleasanton,Pleasanton,CA,California,6001,Alameda,37.6663,-121.8805
Silver Spring,Silver Spring,MD,Maryland,24031,Montgomery,39.0028,-77.0207
Atascocita,Atascocita,TX,Texas,48201,Harris,29.9777,-95.1953
Westland,Westland,MI,Michigan,26163,Wayne,42.3192,-83.3805
Auburn,Auburn,WA,Washington,53033,King,47.3039,-122.2108
Cranston,Cranston,RI,Rhode Island,44007,Providence,41.7658,-71.4857
Somerville,Somerville,MA,Massachusetts,25017,Middlesex,42.3908,-71.1013
Folsom,Folsom,CA,California,6067,Sacramento,38.6668,-121.1422
Springdale,Springdale,AR,Arkansas,5143,Washington,36.1899,-94.1574
Deerfield Beach,Deerfield Beach,FL,Florida,12011,Broward,26.305,-80.1277
Warwick,Warwick,RI,Rhode Island,44003,Kent,41.7062,-71.4334
Cicero,Cicero,IL,Illinois,17031,Cook,41.8445,-87.7593
Farmington Hills,Farmington Hills,MI,Michigan,26125,Oakland,42.486,-83.3771
Newark,Newark,OH,Ohio,39089,Licking,40.0705,-82.4251
Williamsburg,Williamsburg,VA,Virginia,51830,Williamsburg,37.2692,-76.7076
Brooklyn Park,Brooklyn Park,MN,Minnesota,27053,Hennepin,45.1112,-93.3505
Hattiesburg,Hattiesburg,MS,Mississippi,28035,Forrest,31.3074,-89.317
Alexandria,Alexandria,LA,Louisiana,22079,Rapides,31.2923,-92.4702
Lawrence,Lawrence,MA,Massachusetts,25009,Essex,42.7003,-71.1626
Florence,Florence,AL,Alabama,1077,Lauderdale,34.8303,-87.6654
Valdosta,Valdosta,GA,Georgia,13185,Lowndes,30.8502,-83.2788
Plymouth,Plymouth,MN,Minnesota,27053,Hennepin,45.0225,-93.4618
Buckeye,Buckeye,AZ,Arizona,4013,Maricopa,33.4314,-112.6429
Georgetown,Georgetown,TX,Texas,48491,Williamson,30.6668,-97.6953
Cheyenne,Cheyenne,WY,Wyoming,56021,Laramie,41.1351,-104.79
Cedar Park,Cedar Park,TX,Texas,48491,Williamson,30.5106,-97.8196
The Villages,The Villages,FL,Florida,12119,Sumter,28.9021,-81.9888
Kokomo,Kokomo,IN,Indiana,18067,Howard,40.464,-86.1277
Tustin,Tustin,CA,California,6059,Orange,33.7309,-117.8106
Lakewood,Lakewood,CA,California,6037,Los Angeles,33.8471,-118.1221
Perris,Perris,CA,California,6065,Riverside,33.7899,-117.2233
St. Joseph,St. Joseph,MO,Missouri,29021,Buchanan,39.7599,-94.821
Flower Mound,Flower Mound,TX,Texas,48121,Denton,33.0344,-97.1146
Pharr,Pharr,TX,Texas,48215,Hidalgo,26.1685,-98.1904
Pine Hills,Pine Hills,FL,Florida,12095,Orange,28.5818,-81.4693
Alton,Alton,IL,Illinois,17119,Madison,38.9034,-90.1523
Loveland,Loveland,CO,Colorado,8069,Larimer,40.4166,-105.0623
Boynton Beach,Boynton Beach,FL,Florida,12099,Palm Beach,26.5281,-80.0811
New Rochelle,New Rochelle,NY,New York,36119,Westchester,40.9305,-73.7836
Anderson,Anderson,SC,South Carolina,45007,Anderson,34.5211,-82.6479
Jonesboro,Jonesboro,AR,Arkansas,5031,Craighead,35.8212,-90.6791
Lebanon,Lebanon,PA,Pennsylvania,42075,Lebanon,40.3412,-76.4227
Parma,Parma,OH,Ohio,39035,Cuyahoga,41.3843,-81.7286
Layton,Layton,UT,Utah,49011,Davis,41.0769,-111.9621
Elizabethtown,Elizabethtown,KY,Kentucky,21093,Hardin,37.703,-85.877
Texarkana,Texarkana,TX,Texas,48037,Bowie,33.4487,-94.0815
Alameda,Alameda,CA,California,6001,Alameda,37.767,-122.2672
Kankakee,Kankakee,IL,Illinois,17091,Kankakee,41.1019,-87.8643
Watsonville,Watsonville,CA,California,6087,Santa Cruz,36.9206,-121.7706
Porterville,Porterville,CA,California,6107,Tulare,36.0644,-119.0338
Baytown,Baytown,TX,Texas,48201,Harris,29.7586,-94.9669
Upland,Upland,CA,California,6071,San Bernardino,34.1178,-117.6603
Davis,Davis,CA,California,6113,Yolo,38.5552,-121.7365
Camarillo,Camarillo,CA,California,6111,Ventura,34.223,-119.0322
South Jordan,South Jordan,UT,Utah,49035,Salt Lake,40.557,-111.9782
Battle Creek,Battle Creek,MI,Michigan,26025,Calhoun,42.2986,-85.2296
Bellflower,Bellflower,CA,California,6037,Los Angeles,33.888,-118.1271
San Marcos,San Marcos,TX,Texas,48209,Hays,29.8736,-97.9381
San Ramon,San Ramon,CA,California,6013,Contra Costa,37.7625,-121.9365
Lake Jackson,Lake Jackson,TX,Texas,48039,Brazoria,29.0516,-95.4522
Bethlehem,Bethlehem,PA,Pennsylvania,42095,Northampton,40.6266,-75.3679
Wyoming,Wyoming,MI,Michigan,26081,Kent,42.8909,-85.7066
Oshkosh,Oshkosh,WI,Wisconsin,55139,Winnebago,44.0228,-88.5619
Hammond,Hammond,IN,Indiana,18089,Lake,41.6169,-87.491
Waldorf,Waldorf,MD,Maryland,24017,Charles,38.6085,-76.9195
Missouri City,Missouri City,TX,Texas,48157,Fort Bend,29.563,-95.5365
Pasco,Pasco,WA,Washington,53021,Franklin,46.2506,-119.1304
Wheeling,Wheeling,WV,West Virginia,54069,Ohio,40.0752,-80.6951
Kendall,Kendall,FL,Florida,12086,Miami-Dade,25.6697,-80.3556
Baldwin Park,Baldwin Park,CA,California,6037,Los Angeles,34.0829,-117.9721
Rancho Cordova,Rancho Cordova,CA,California,6067,Sacramento,38.574,-121.2523
Conway,Conway,AR,Arkansas,5045,Faulkner,35.0754,-92.4694
Gary,Gary,IN,Indiana,18089,Lake,41.5906,-87.3472
Altoona,Altoona,PA,Pennsylvania,42013,Blair,40.5082,-78.4007
Lodi,Lodi,CA,California,6077,San Joaquin,38.1218,-121.2932
Arlington Heights,Arlington Heights,IL,Illinois,17031,Cook,42.0955,-87.9825
Bolingbrook,Bolingbrook,IL,Illinois,17197,Will,41.6903,-88.1019
Rochester Hills,Rochester Hills,MI,Michigan,26125,Oakland,42.6645,-83.1563
Winchester,Winchester,VA,Virginia,51840,Winchester,39.1735,-78.1746
Framingham,Framingham,MA,Massachusetts,25017,Middlesex,42.3085,-71.4368
Hilton Head Island,Hilton Head Island,SC,South Carolina,45013,Beaufort,32.1896,-80.7499
Centreville,Centreville,VA,Virginia,51059,Fairfax,38.8391,-77.4388
Union City,Union City,CA,California,6001,Alameda,37.603,-122.0187
Owensboro,Owensboro,KY,Kentucky,21059,Daviess,37.7574,-87.1173
Jackson,Jackson,TN,Tennessee,47113,Madison,35.6535,-88.8353
Cleveland,Cleveland,TN,Tennessee,47011,Bradley,35.1817,-84.8707
Wausau,Wausau,WI,Wisconsin,55073,Marathon,44.962,-89.6459
Camden,Camden,NJ,New Jersey,34007,Camden,39.9362,-75.1073
Anniston,Anniston,AL,Alabama,1015,Calhoun,33.6712,-85.8136
Evanston,Evanston,IL,Illinois,17031,Cook,42.0463,-87.6942
Apple Valley,Apple Valley,CA,California,6071,San Bernardino,34.5328,-117.2104
Mansfield,Mansfield,OH,Ohio,39139,Richland,40.7656,-82.5275
Caguas,Caguas,PR,Puerto Rico,72025,Caguas,18.2319,-66.0388
Schaumburg,Schaumburg,IL,Illinois,17031,Cook,42.0307,-88.0838
Pocatello,Pocatello,ID,Idaho,16005,Bannock,42.8724,-112.4646
Woodbury,Woodbury,MN,Minnesota,27163,Washington,44.9056,-92.923
Southfield,Southfield,MI,Michigan,26125,Oakland,42.4765,-83.2605
Ellicott City,Ellicott City,MD,Maryland,24027,Howard,39.2773,-76.8344
Dale City,Dale City,VA,Virginia,51153,Prince William,38.6473,-77.3459
Maple Grove,Maple Grove,MN,Minnesota,27053,Hennepin,45.1089,-93.4626
Pittsburg,Pittsburg,CA,California,6013,Contra Costa,38.0182,-121.8964
New Britain,New Britain,CT,Connecticut,9003,Hartford,41.6758,-72.7862
Morgantown,Morgantown,WV,West Virginia,54061,Monongalia,39.638,-79.9468
Mansfield,Mansfield,TX,Texas,48439,Tarrant,32.569,-97.1211
Hammond,Hammond,LA,Louisiana,22105,Tangipahoa,30.5061,-90.4563
Dothan,Dothan,AL,Alabama,1069,Houston,31.2335,-85.4069
Harrisonburg,Harrisonburg,VA,Virginia,51660,Harrisonburg,38.4361,-78.8735
Wenatchee,Wenatchee,WA,Washington,53007,Chelan,47.4356,-120.3283
Waukesha,Waukesha,WI,Wisconsin,55133,Waukesha,43.0087,-88.2464
Pawtucket,Pawtucket,RI,Rhode Island,44007,Providence,41.8744,-71.3743
Redmond,Redmond,WA,Washington,53033,King,47.6762,-122.1169
Lauderhill,Lauderhill,FL,Florida,12011,Broward,26.1605,-80.2242
Sumter,Sumter,SC,South Carolina,45085,Sumter,33.9392,-80.393
Redlands,Redlands,CA,California,6071,San Bernardino,34.0511,-117.1712
Daphne,Daphne,AL,Alabama,1003,Baldwin,30.6286,-87.8866
Mount Vernon,Mount Vernon,WA,Washington,53057,Skagit,48.4202,-122.3115
Weston,Weston,FL,Florida,12011,Broward,26.1006,-80.4054
St. Charles,St. Charles,MO,Missouri,29183,St. Charles,38.7954,-90.5157
Janesville,Janesville,WI,Wisconsin,55105,Rock,42.6855,-89.0136
Sherman,Sherman,TX,Texas,48181,Grayson,33.6274,-96.6218
North Richland Hills,North Richland Hills,TX,Texas,48439,Tarrant,32.8605,-97.218
Broomfield,Broomfield,CO,Colorado,8014,Broomfield,39.9541,-105.0527
El Paso de Robles,El Paso de Robles,CA,California,6079,San Luis Obispo,35.6394,-120.656
Bristol,Bristol,TN,Tennessee,47163,Sullivan,36.5572,-82.2154
Wilmington,Wilmington,DE,Delaware,10003,New Castle,39.7415,-75.5413
Casas Adobes,Casas Adobes,AZ,Arizona,4019,Pima,32.3423,-111.0114
Walnut Creek,Walnut Creek,CA,California,6013,Contra Costa,37.9024,-122.0398
Poinciana,Poinciana,FL,Florida,12105,Polk,28.1217,-81.482
Lynwood,Lynwood,CA,California,6037,Los Angeles,33.924,-118.2017
Glen Burnie,Glen Burnie,MD,Maryland,24003,Anne Arundel,39.1559,-76.6072
Lehi,Lehi,UT,Utah,49049,Utah,40.4136,-111.8726
Passaic,Passaic,NJ,New Jersey,34031,Passaic,40.8574,-74.1282
Homestead,Homestead,FL,Florida,12086,Miami-Dade,25.4665,-80.4472
West Bend,West Bend,WI,Wisconsin,55131,Washington,43.4184,-88.1824
Delray Beach,Delray Beach,FL,Florida,12099,Palm Beach,26.455,-80.0905
Sheboygan,Sheboygan,WI,Wisconsin,55117,Sheboygan,43.7403,-87.7316
Lake Elsinore,Lake Elsinore,CA,California,6065,Riverside,33.6847,-117.3344
Daytona Beach,Daytona Beach,FL,Florida,12127,Volusia,29.1994,-81.0982
Los Lunas,Los Lunas,NM,New Mexico,35061,Valencia,34.8115,-106.7803
Lima,Lima,OH,Ohio,39003,Allen,40.741,-84.1121
Decatur,Decatur,AL,Alabama,1103,Morgan,34.573,-86.9906
Rocklin,Rocklin,CA,California,6061,Placer,38.8075,-121.2488
Rogers,Rogers,AR,Arkansas,5007,Benton,36.3172,-94.1526
Castle Rock,Castle Rock,CO,Colorado,8035,Douglas,39.3763,-104.8535
Hanover,Hanover,PA,Pennsylvania,42133,York,39.8117,-76.9835
Bossier City,Bossier City,LA,Louisiana,22015,Bossier,32.5227,-93.6666
Dubuque,Dubuque,IA,Iowa,19061,Dubuque,42.5008,-90.7067
Rockville,Rockville,MD,Maryland,24031,Montgomery,39.0834,-77.1552
Victoria,Victoria,TX,Texas,48469,Victoria,28.8285,-96.985
Saratoga Springs,Saratoga Springs,NY,New York,36091,Saratoga,43.0674,-73.7775
Guaynabo,Guaynabo,PR,Puerto Rico,72061,Guaynabo,18.3839,-66.1134
Gaithersburg,Gaithersburg,MD,Maryland,24031,Montgomery,39.1346,-77.2132
Union City,Union City,NJ,New Jersey,34017,Hudson,40.7674,-74.0323
Ames,Ames,IA,Iowa,19169,Story,42.0259,-93.6215
West Des Moines,West Des Moines,IA,Iowa,19153,Polk,41.5522,-93.7805
South San Francisco,South San Francisco,CA,California,6081,San Mateo,37.6536,-122.4197
Yorba Linda,Yorba Linda,CA,California,6059,Orange,33.889,-117.7714
Casper,Casper,WY,Wyoming,56025,Natrona,42.842,-106.3207
Palatine,Palatine,IL,Illinois,17031,Cook,42.1181,-88.043
Corvallis,Corvallis,OR,Oregon,41003,Benton,44.5697,-123.278
Ankeny,Ankeny,IA,Iowa,19153,Polk,41.7285,-93.6033
Mount Vernon,Mount Vernon,NY,New York,36119,Westchester,40.9136,-73.8291
Rowlett,Rowlett,TX,Texas,48113,Dallas,32.9157,-96.5488
Lakeville,Lakeville,MN,Minnesota,27037,Dakota,44.6774,-93.252
Alpharetta,Alpharetta,GA,Georgia,13121,Fulton,34.0704,-84.2739
Longview,Longview,WA,Washington,53015,Cowlitz,46.1461,-122.9629
DeKalb,DeKalb,IL,Illinois,17037,DeKalb,41.9313,-88.7482
Petaluma,Petaluma,CA,California,6097,Sonoma,38.2423,-122.6267
Redondo Beach,Redondo Beach,CA,California,6037,Los Angeles,33.8574,-118.3766
Tamarac,Tamarac,FL,Florida,12011,Broward,26.2056,-80.2542
Laguna Niguel,Laguna Niguel,CA,California,6059,Orange,33.5275,-117.705
Eagan,Eagan,MN,Minnesota,27037,Dakota,44.8169,-93.1638
Kenner,Kenner,LA,Louisiana,22051,Jefferson,30.0109,-90.2549
Bay City,Bay City,MI,Michigan,26017,Bay,43.5903,-83.8886
North Little Rock,North Little Rock,AR,Arkansas,5119,Pulaski,34.7808,-92.2371
Sammamish,Sammamish,WA,Washington,53033,King,47.6017,-122.0416
Shawnee,Shawnee,KS,Kansas,20091,Johnson,39.0158,-94.8076
Jupiter,Jupiter,FL,Florida,12099,Palm Beach,26.9199,-80.1128
Doral,Doral,FL,Florida,12086,Miami-Dade,25.8151,-80.3565
Florence-Graham,Florence-Graham,CA,California,6037,Los Angeles,33.9682,-118.2447
Carbondale,Carbondale,IL,Illinois,17077,Jackson,37.7221,-89.2238
Blaine,Blaine,MN,Minnesota,27003,Anoka,45.1696,-93.2077
Weirton,Weirton,WV,West Virginia,54029,Hancock,40.406,-80.5671
Tulare,Tulare,CA,California,6107,Tulare,36.1996,-119.34
Wellington,Wellington,FL,Florida,12099,Palm Beach,26.6461,-80.2699
Pflugerville,Pflugerville,TX,Texas,48453,Travis,30.452,-97.6022
Palo Alto,Palo Alto,CA,California,6085,Santa Clara,37.3913,-122.1468
Schenectady,Schenectady,NY,New York,36093,Schenectady,42.8025,-73.9276
Great Falls,Great Falls,MT,Montana,30013,Cascade,47.5022,-111.2995
Michigan City,Michigan City,IN,Indiana,18091,LaPorte,41.7099,-86.8705
Bayonne,Bayonne,NJ,New Jersey,34017,Hudson,40.6661,-74.1141
Eden Prairie,Eden Prairie,MN,Minnesota,27053,Hennepin,44.8488,-93.4595
Port Orange,Port Orange,FL,Florida,12127,Volusia,29.1084,-81.0137
Dublin,Dublin,CA,California,6001,Alameda,37.7161,-121.8963
Grand Forks,Grand Forks,ND,North Dakota,38035,Grand Forks,47.9218,-97.0886
Noblesville,Noblesville,IN,Indiana,18057,Hamilton,40.0354,-86.0042
San Clemente,San Clemente,CA,California,6059,Orange,33.4498,-117.6103
Brentwood,Brentwood,CA,California,6013,Contra Costa,37.9355,-121.7191
Carmichael,Carmichael,CA,California,6067,Sacramento,38.6337,-121.323
East Orange,East Orange,NJ,New Jersey,34013,Essex,40.7651,-74.2117
Eastvale,Eastvale,CA,California,6065,Riverside,33.9617,-117.5802
Chapel Hill,Chapel Hill,NC,North Carolina,37135,Orange,35.927,-79.0391
Rocky Mount,Rocky Mount,NC,North Carolina,37127,Nash,35.9676,-77.8048
Haverhill,Haverhill,MA,Massachusetts,25009,Essex,42.7838,-71.0871
Beloit,Beloit,WI,Wisconsin,55105,Rock,42.523,-89.0184
Glens Falls,Glens Falls,NY,New York,36113,Warren,43.3109,-73.6459
Brentwood,Brentwood,NY,New York,36103,Suffolk,40.7839,-73.2522
Fairbanks,Fairbanks,AK,Alaska,2090,Fairbanks North Star,64.8353,-147.6534
Springfield,Springfield,OR,Oregon,41039,Lane,44.0538,-122.981
Bethesda,Bethesda,MD,Maryland,24031,Montgomery,38.9866,-77.1188
Johnstown,Johnstown,PA,Pennsylvania,42021,Cambria,40.3258,-78.9193
Dundalk,Dundalk,MD,Maryland,24005,Baltimore,39.2703,-76.4942
Castro Valley,Castro Valley,CA,California,6001,Alameda,37.7091,-122.0631
Coon Rapids,Coon Rapids,MN,Minnesota,27003,Anoka,45.1755,-93.3095
Elmira,Elmira,NY,New York,36015,Chemung,42.0938,-76.8097
Mankato,Mankato,MN,Minnesota,27013,Blue Earth,44.1712,-93.9773
Albany,Albany,OR,Oregon,41043,Linn,44.6274,-123.0966
North Miami,North Miami,FL,Florida,12086,Miami-Dade,25.9007,-80.1686
Encinitas,Encinitas,CA,California,6073,San Diego,33.049,-117.2613
Skokie,Skokie,IL,Illinois,17031,Cook,42.0359,-87.74
Leander,Leander,TX,Texas,48491,Williamson,30.5728,-97.8618
Parkersburg,Parkersburg,WV,West Virginia,54107,Wood,39.2624,-81.542
Waltham,Waltham,MA,Massachusetts,25017,Middlesex,42.3889,-71.2423
Port Charlotte,Port Charlotte,FL,Florida,12015,Charlotte,26.9918,-82.114
Palm Harbor,Palm Harbor,FL,Florida,12103,Pinellas,28.0847,-82.7481
San Luis Obispo,San Luis Obispo,CA,California,6079,San Luis Obispo,35.2669,-120.6691
Sebring,Sebring,FL,Florida,12055,Highlands,27.477,-81.453
Council Bluffs,Council Bluffs,IA,Iowa,19155,Pottawattamie,41.2369,-95.8517
Hamilton,Hamilton,OH,Ohio,39017,Butler,39.3938,-84.5653
Moore,Moore,OK,Oklahoma,40027,Cleveland,35.3293,-97.4758
Pico Rivera,Pico Rivera,CA,California,6037,Los Angeles,33.9902,-118.0888
Casa Grande,Casa Grande,AZ,Arizona,4021,Pinal,32.9068,-111.7624
Monessen,Monessen,PA,Pennsylvania,42129,Westmoreland,40.1519,-79.8828
Montebello,Montebello,CA,California,6037,Los Angeles,34.0155,-118.1108
Rome,Rome,GA,Georgia,13115,Floyd,34.2661,-85.1862
The Hammocks,The Hammocks,FL,Florida,12086,Miami-Dade,25.67,-80.4483
Millcreek,Millcreek,UT,Utah,49035,Salt Lake,40.6892,-111.8291
Sanford,Sanford,FL,Florida,12117,Seminole,28.7893,-81.276
National City,National City,CA,California,6073,San Diego,32.6654,-117.0983
Mayagüez,Mayaguez,PR,Puerto Rico,72097,Mayagüez,18.2003,-67.1397
Burnsville,Burnsville,MN,Minnesota,27037,Dakota,44.7648,-93.2795
Coconut Creek,Coconut Creek,FL,Florida,12011,Broward,26.2803,-80.1842
Morristown,Morristown,TN,Tennessee,47063,Hamblen,36.2046,-83.3006
Reston,Reston,VA,Virginia,51059,Fairfax,38.9497,-77.3461
Lakewood,Lakewood,WA,Washington,53053,Pierce,47.1628,-122.5299
Spring,Spring,TX,Texas,48201,Harris,30.0613,-95.383
Gadsden,Gadsden,AL,Alabama,1055,Etowah,34.009,-86.0156
Taylor,Taylor,MI,Michigan,26163,Wayne,42.226,-83.2688
Novi,Novi,MI,Michigan,26125,Oakland,42.4786,-83.4893
Marietta,Marietta,GA,Georgia,13067,Cobb,33.9533,-84.5422
Hot Springs,Hot Springs,AR,Arkansas,5051,Garland,34.4892,-93.0501
Woodland,Woodland,CA,California,6113,Yolo,38.6712,-121.75
Fountainebleau,Fountainebleau,FL,Florida,12086,Miami-Dade,25.7723,-80.3458
La Habra,La Habra,CA,California,6059,Orange,33.9278,-117.9513
Malden,Malden,MA,Massachusetts,25017,Middlesex,42.4305,-71.0576
South Whittier,South Whittier,CA,California,6037,Los Angeles,33.9336,-118.0311
Commerce City,Commerce City,CO,Colorado,8001,Adams,39.8642,-104.8434
South Hill,South Hill,WA,Washington,53053,Pierce,47.1203,-122.2848
Bristol,Bristol,CT,Connecticut,9003,Hartford,41.6812,-72.9407
Columbus,Columbus,IN,Indiana,18005,Bartholomew,39.2093,-85.9183
West Allis,West Allis,WI,Wisconsin,55079,Milwaukee,43.0068,-88.0296
Taylorsville,Taylorsville,UT,Utah,49035,Salt Lake,40.657,-111.9493
Bangor,Bangor,ME,Maine,23019,Penobscot,44.8322,-68.7906
Monterey Park,Monterey Park,CA,California,6037,Los Angeles,34.0497,-118.1326
Greenwood,Greenwood,IN,Indiana,18081,Johnson,39.6019,-86.1073
Bartlett,Bartlett,TN,Tennessee,47157,Shelby,35.2337,-89.8195
Bradenton,Bradenton,FL,Florida,12081,Manatee,27.49,-82.5739
Pontiac,Pontiac,MI,Michigan,26125,Oakland,42.6493,-83.2878
Staunton,Staunton,VA,Virginia,51790,Staunton,38.1593,-79.0611
Meriden,Meriden,CT,Connecticut,9009,New Haven,41.5367,-72.7944
Gardena,Gardena,CA,California,6037,Los Angeles,33.8944,-118.3073
Apex,Apex,NC,North Carolina,37183,Wake,35.7239,-78.8728
Royal Oak,Royal Oak,MI,Michigan,26125,Oakland,42.5084,-83.1539
Cupertino,Cupertino,CA,California,6085,Santa Clara,37.3168,-122.0465
La Mesa,La Mesa,CA,California,6073,San Diego,32.7703,-117.0204
Benton Harbor,Benton Harbor,MI,Michigan,26021,Berrien,42.1159,-86.4488
St. Clair Shores,St. Clair Shores,MI,Michigan,26099,Macomb,42.4921,-82.8957
Des Plaines,Des Plaines,IL,Illinois,17031,Cook,42.0345,-87.9009
Lewiston,Lewiston,ME,Maine,23001,Androscoggin,44.0915,-70.1681
Margate,Margate,FL,Florida,12011,Broward,26.2466,-80.2119
Midland,Midland,MI,Michigan,26111,Midland,43.6241,-84.2319
Carson City,Carson City,NV,Nevada,32510,Carson City,39.1512,-119.7474
Bowie,Bowie,MD,Maryland,24033,Prince George's,38.9569,-76.7409
Middletown,Middletown,NY,New York,36071,Orange,41.4459,-74.4236
Caldwell,Caldwell,ID,Idaho,16027,Canyon,43.6453,-116.6591
San Rafael,San Rafael,CA,California,6041,Marin,37.9905,-122.5222
Richland,Richland,WA,Washington,53005,Benton,46.2824,-119.2938
St. Peters,St. Peters,MO,Missouri,29183,St. Charles,38.7824,-90.6061
Wesley Chapel,Wesley Chapel,FL,Florida,12101,Pasco,28.2106,-82.3238
Hendersonville,Hendersonville,TN,Tennessee,47165,Sumner,36.3063,-86.5998
White Plains,White Plains,NY,New York,36119,Westchester,41.022,-73.7549
Huntersville,Huntersville,NC,North Carolina,37119,Mecklenburg,35.4058,-80.8727
Santee,Santee,CA,California,6073,San Diego,32.8554,-116.9851
Jefferson City,Jefferson City,MO,Missouri,29051,Cole,38.5676,-92.1759
Beckley,Beckley,WV,West Virginia,54081,Raleigh,37.7878,-81.1841
Arcadia,Arcadia,CA,California,6037,Los Angeles,34.1342,-118.0373
Titusville,Titusville,FL,Florida,12009,Brevard,28.5727,-80.8193
Cartersville,Cartersville,GA,Georgia,13015,Bartow,34.1639,-84.8007
Walla Walla,Walla Walla,WA,Washington,53071,Walla Walla,46.067,-118.3366
Orland Park,Orland Park,IL,Illinois,17031,Cook,41.6074,-87.8619
Towson,Towson,MD,Maryland,24005,Baltimore,39.3944,-76.619
Weymouth,Weymouth,MA,Massachusetts,25021,Norfolk,42.1984,-70.9466
Parker,Parker,CO,Colorado,8035,Douglas,39.5084,-104.7753
Palm Beach Gardens,Palm Beach Gardens,FL,Florida,12099,Palm Beach,26.8466,-80.1679
Bozeman,Bozeman,MT,Montana,30031,Gallatin,45.6832,-111.0552
East Stroudsburg,East Stroudsburg,PA,Pennsylvania,42089,Monroe,41.0023,-75.1779
Huntington Park,Huntington Park,CA,California,6037,Los Angeles,33.98,-118.2167
Taunton,Taunton,MA,Massachusetts,25005,Bristol,41.9036,-71.0943
Midwest City,Midwest City,OK,Oklahoma,40109,Oklahoma,35.463,-97.3709
Medford,Medford,MA,Massachusetts,25017,Middlesex,42.4234,-71.1087
Goldsboro,Goldsboro,NC,North Carolina,37191,Wayne,35.3778,-77.972
Euless,Euless,TX,Texas,48439,Tarrant,32.8508,-97.0799
Manhattan,Manhattan,KS,Kansas,20161,Riley,39.1886,-96.6046
Shoreline,Shoreline,WA,Washington,53033,King,47.7564,-122.3426
Lake Havasu City,Lake Havasu City,AZ,Arizona,4015,Mohave,34.5006,-114.3113
Smyrna,Smyrna,GA,Georgia,13067,Cobb,33.8633,-84.5168
Cape Girardeau,Cape Girardeau,MO,Missouri,29031,Cape Girardeau,37.3108,-89.5597
Tamiami,Tamiami,FL,Florida,12086,Miami-Dade,25.7556,-80.4016
Kendale Lakes,Kendale Lakes,FL,Florida,12086,Miami-Dade,25.7081,-80.4078
Grants Pass,Grants Pass,OR,Oregon,41033,Josephine,42.4333,-123.3317
Blue Springs,Blue Springs,MO,Missouri,29095,Jackson,39.0124,-94.2721
Southaven,Southaven,MS,Mississippi,28033,DeSoto,34.9514,-89.9787
Tinley Park,Tinley Park,IL,Illinois,17031,Cook,41.567,-87.805
Diamond Bar,Diamond Bar,CA,California,6037,Los Angeles,33.9991,-117.8161
Pittsfield,Pittsfield,MA,Massachusetts,25003,Berkshire,42.4517,-73.2605
Eagle Pass,Eagle Pass,TX,Texas,48323,Maverick,28.7125,-100.484
New Brunswick,New Brunswick,NJ,New Jersey,34023,Middlesex,40.487,-74.445
Lenexa,Lenexa,KS,Kansas,20091,Johnson,38.9609,-94.8018
Hazleton,Hazleton,PA,Pennsylvania,42079,Luzerne,40.9504,-75.9724
Twin Falls,Twin Falls,ID,Idaho,16083,Twin Falls,42.5645,-114.4615
Brookhaven,Brookhaven,GA,Georgia,13089,DeKalb,33.8744,-84.3314
Novato,Novato,CA,California,6041,Marin,38.092,-122.5576
Tigard,Tigard,OR,Oregon,41067,Washington,45.4237,-122.7845
Highland,Highland,CA,California,6071,San Bernardino,34.1113,-117.1654
Fountain Valley,Fountain Valley,CA,California,6059,Orange,33.7105,-117.9514
Dearborn Heights,Dearborn Heights,MI,Michigan,26163,Wayne,42.3164,-83.2769
Grapevine,Grapevine,TX,Texas,48439,Tarrant,32.9343,-97.0744
Fond du Lac,Fond du Lac,WI,Wisconsin,55039,Fond du Lac,43.7718,-88.4396
Hacienda Heights,Hacienda Heights,CA,California,6037,Los Angeles,33.997,-117.9728
Ithaca,Ithaca,NY,New York,36109,Tompkins,42.4442,-76.5032
Apple Valley,Apple Valley,MN,Minnesota,27037,Dakota,44.7457,-93.2006
Chicopee,Chicopee,MA,Massachusetts,25013,Hampden,42.1764,-72.5719
Oak Lawn,Oak Lawn,IL,Illinois,17031,Cook,41.7139,-87.7528
Cathedral City,Cathedral City,CA,California,6065,Riverside,33.8363,-116.4642
Delano,Delano,CA,California,6029,Kern,35.767,-119.2637
Bentonville,Bentonville,AR,Arkansas,5007,Benton,36.3546,-94.2306
Stonecrest,Stonecrest,GA,Georgia,13089,DeKalb,33.6842,-84.1372
Kettering,Kettering,OH,Ohio,39113,Montgomery,39.6957,-84.1495
Colton,Colton,CA,California,6071,San Bernardino,34.0538,-117.3254
Kingston,Kingston,NY,New York,36111,Ulster,41.9295,-73.9968
West Haven,West Haven,CT,Connecticut,9009,New Haven,41.2739,-72.9672
St. Cloud,St. Cloud,FL,Florida,12097,Osceola,28.2294,-81.2829
Normal,Normal,IL,Illinois,17113,McLean,40.5218,-88.9881
Berwyn,Berwyn,IL,Illinois,17031,Cook,41.8433,-87.7909
Milford,Milford,CT,Connecticut,9009,New Haven,41.2256,-73.0616
Aloha,Aloha,OR,Oregon,41067,Washington,45.492,-122.8726
Arroyo Grande,Arroyo Grande,CA,California,6079,San Luis Obispo,35.1241,-120.5845
Minnetonka,Minnetonka,MN,Minnesota,27053,Hennepin,44.9322,-93.4598
Rosemead,Rosemead,CA,California,6037,Los Angeles,34.0689,-118.0823
Paramount,Paramount,CA,California,6037,Los Angeles,33.8976,-118.1652
Yucaipa,Yucaipa,CA,California,6071,San Bernardino,34.0336,-117.0429
Brunswick,Brunswick,GA,Georgia,13127,Glynn,31.145,-81.474
Williamsport,Williamsport,PA,Pennsylvania,42081,Lycoming,41.2398,-77.0371
Elyria,Elyria,OH,Ohio,39093,Lorain,41.3761,-82.1063
Leesburg,Leesburg,VA,Virginia,51107,Loudoun,39.1058,-77.5544
Mount Prospect,Mount Prospect,IL,Illinois,17031,Cook,42.0641,-87.9375
Pinellas Park,Pinellas Park,FL,Florida,12103,Pinellas,27.8589,-82.7078
Bellevue,Bellevue,NE,Nebraska,31153,Sarpy,41.1535,-95.9357
West Sacramento,West Sacramento,CA,California,6113,Yolo,38.5557,-121.5504
Apopka,Apopka,FL,Florida,12095,Orange,28.7014,-81.5304
Lewiston,Lewiston,ID,Idaho,16069,Nez Perce,46.3934,-116.9934
Grand Island,Grand Island,NE,Nebraska,31079,Hall,40.9214,-98.3584
Palm Desert,Palm Desert,CA,California,6065,Riverside,33.7378,-116.3695
Milford city ,Milford city ,CT,Connecticut,9009,New Haven,41.2256,-73.0625
Watertown,Watertown,NY,New York,36045,Jefferson,43.9734,-75.9094
Little Elm,Little Elm,TX,Texas,48121,Denton,33.1856,-96.929
Chambersburg,Chambersburg,PA,Pennsylvania,42055,Franklin,39.9315,-77.6556
Revere,Revere,MA,Massachusetts,25025,Suffolk,42.4192,-71.0036
Peabody,Peabody,MA,Massachusetts,25009,Essex,42.5335,-70.9724
Wylie,Wylie,TX,Texas,48085,Collin,33.0362,-96.5161
Beaufort,Beaufort,SC,South Carolina,45013,Beaufort,32.4597,-80.7235
Aspen Hill,Aspen Hill,MD,Maryland,24031,Montgomery,39.0928,-77.0823
DeSoto,DeSoto,TX,Texas,48113,Dallas,32.5992,-96.8633
Helena,Helena,MT,Montana,30049,Lewis and Clark,46.5965,-112.0202
Edina,Edina,MN,Minnesota,27053,Hennepin,44.8914,-93.3602
Wheaton,Wheaton,IL,Illinois,17043,DuPage,41.8561,-88.1083
West New York,West New York,NJ,New Jersey,34017,Hudson,40.7856,-74.0093
Hoboken,Hoboken,NJ,New Jersey,34017,Hudson,40.7453,-74.0279
Lacey,Lacey,WA,Washington,53067,Thurston,47.046,-122.7934
Summerville,Summerville,SC,South Carolina,45035,Dorchester,33.0015,-80.1799
Oak Park,Oak Park,IL,Illinois,17031,Cook,41.8872,-87.7899
Maricopa,Maricopa,AZ,Arizona,4021,Pinal,33.0404,-112.0006
Lompoc,Lompoc,CA,California,6083,Santa Barbara,34.6618,-120.4714
Kentwood,Kentwood,MI,Michigan,26081,Kent,42.8852,-85.5925
Levittown,Levittown,PA,Pennsylvania,42017,Bucks,40.1537,-74.853
Sierra Vista,Sierra Vista,AZ,Arizona,4003,Cochise,31.563,-110.3153
Levittown,Levittown,NY,New York,36059,Nassau,40.7241,-73.5125
Madison,Madison,AL,Alabama,1089,Madison,34.7114,-86.7626
Smyrna,Smyrna,TN,Tennessee,47149,Rutherford,35.9722,-86.5253
Glendora,Glendora,CA,California,6037,Los Angeles,34.1449,-117.8468
Burien,Burien,WA,Washington,53033,King,47.4762,-122.3394
Perth Amboy,Perth Amboy,NJ,New Jersey,34023,Middlesex,40.5203,-74.2724
Herriman,Herriman,UT,Utah,49035,Salt Lake,40.4899,-112.0171
Farmington,Farmington,NM,New Mexico,35045,San Juan,36.7555,-108.1823
New Bern,New Bern,NC,North Carolina,37049,Craven,35.0955,-77.0723
Placentia,Placentia,CA,California,6059,Orange,33.8807,-117.8553
Hinesville,Hinesville,GA,Georgia,13179,Liberty,31.8247,-81.6135
Beaumont,Beaumont,CA,California,6065,Riverside,33.9076,-116.9766
Collierville,Collierville,TN,Tennessee,47157,Shelby,35.0471,-89.6988
West Lafayette,West Lafayette,IN,Indiana,18157,Tippecanoe,40.4432,-86.9239
Florissant,Florissant,MO,Missouri,29189,St. Louis,38.7996,-90.3269
Hoffman Estates,Hoffman Estates,IL,Illinois,17031,Cook,42.0639,-88.1468
Queen Creek,Queen Creek,AZ,Arizona,4013,Maricopa,33.2386,-111.6343
Aliso Viejo,Aliso Viejo,CA,California,6059,Orange,33.5792,-117.7289
Kannapolis,Kannapolis,NC,North Carolina,37025,Cabarrus,35.4764,-80.6403
Methuen Town,Methuen Town,MA,Massachusetts,25009,Essex,42.734,-71.1889
Sahuarita,Sahuarita,AZ,Arizona,4019,Pima,31.9323,-110.9654
Traverse City,Traverse City,MI,Michigan,26055,Grand Traverse,44.7547,-85.6035
Severn,Severn,MD,Maryland,24003,Anne Arundel,39.1355,-76.6958
Catalina Foothills,Catalina Foothills,AZ,Arizona,4019,Pima,32.3041,-110.8835
Galveston,Galveston,TX,Texas,48167,Galveston,29.2487,-94.891
Country Club,Country Club,FL,Florida,12086,Miami-Dade,25.9407,-80.3102
Cookeville,Cookeville,TN,Tennessee,47141,Putnam,36.1484,-85.5114
Mishawaka,Mishawaka,IN,Indiana,18141,St. Joseph,41.6736,-86.1669
Rowland Heights,Rowland Heights,CA,California,6037,Los Angeles,33.9716,-117.8911
Plainfield,Plainfield,NJ,New Jersey,34039,Union,40.6154,-74.4157
Bullhead City,Bullhead City,AZ,Arizona,4015,Mohave,35.1205,-114.546
Stillwater,Stillwater,OK,Oklahoma,40119,Payne,36.1316,-97.074
Forney,Forney,TX,Texas,48257,Kaufman,32.744,-96.4529
Wheaton,Wheaton,MD,Maryland,24031,Montgomery,39.0492,-77.0572
Azusa,Azusa,CA,California,6037,Los Angeles,34.1386,-117.9124
North Bethesda,North Bethesda,MD,Maryland,24031,Montgomery,39.0393,-77.1191
Cerritos,Cerritos,CA,California,6037,Los Angeles,33.8677,-118.0686
Ashburn,Ashburn,VA,Virginia,51107,Loudoun,39.03,-77.4711
Bloomsburg,Bloomsburg,PA,Pennsylvania,42037,Columbia,41.0027,-76.4561
Morehead City,Morehead City,NC,North Carolina,37031,Carteret,34.7308,-76.7387
Coral Gables,Coral Gables,FL,Florida,12086,Miami-Dade,25.7037,-80.2715
Enid,Enid,OK,Oklahoma,40047,Garfield,36.4061,-97.8701
Lakewood,Lakewood,OH,Ohio,39035,Cuyahoga,41.4824,-81.8008
Oroville,Oroville,CA,California,6007,Butte,39.4999,-121.5634
Wilson,Wilson,NC,North Carolina,37195,Wilson,35.7312,-77.9284
Lawrence,Lawrence,IN,Indiana,18097,Marion,39.8674,-85.9905
Portage,Portage,MI,Michigan,26077,Kalamazoo,42.2,-85.5906
Minot,Minot,ND,North Dakota,38101,Ward,48.2375,-101.2781
Dunwoody,Dunwoody,GA,Georgia,13089,DeKalb,33.9418,-84.3122
Poway,Poway,CA,California,6073,San Diego,32.9871,-117.0201
San Jacinto,San Jacinto,CA,California,6065,Riverside,33.797,-116.9916
Troy,Troy,NY,New York,36083,Rensselaer,42.7354,-73.6751
Newark,Newark,CA,California,6001,Alameda,37.5204,-122.0312
Cuyahoga Falls,Cuyahoga Falls,OH,Ohio,39153,Summit,41.1641,-81.5207
Downers Grove,Downers Grove,IL,Illinois,17043,DuPage,41.7949,-88.017
Bedford,Bedford,TX,Texas,48439,Tarrant,32.8464,-97.135
Reedley,Reedley,CA,California,6019,Fresno,36.5987,-119.4473
Dublin,Dublin,OH,Ohio,39049,Franklin,40.1112,-83.1454
Marana,Marana,AZ,Arizona,4019,Pima,32.4355,-111.1558
Cypress,Cypress,CA,California,6059,Orange,33.8171,-118.0386
Hollister,Hollister,CA,California,6069,San Benito,36.8563,-121.3981
Murray,Murray,UT,Utah,49035,Salt Lake,40.6498,-111.8874
Roswell,Roswell,NM,New Mexico,35005,Chaves,33.373,-104.5294
Pascagoula,Pascagoula,MS,Mississippi,28059,Jackson,30.3665,-88.5507
Tuckahoe,Tuckahoe,VA,Virginia,51087,Henrico,37.5878,-77.5858
Ceres,Ceres,CA,California,6099,Stanislaus,37.5953,-120.9625
St. Louis Park,St. Louis Park,MN,Minnesota,27053,Hennepin,44.9488,-93.3649
Rio Grande City,Rio Grande City,TX,Texas,48427,Starr,26.3808,-98.8215
Draper,Draper,UT,Utah,49035,Salt Lake,40.4957,-111.8605
Palm Springs,Palm Springs,CA,California,6065,Riverside,33.8017,-116.5382
Paducah,Paducah,KY,Kentucky,21145,McCracken,37.0711,-88.6436
Findlay,Findlay,OH,Ohio,39063,Hancock,41.0467,-83.6379
University,University,FL,Florida,12057,Hillsborough,28.0771,-82.4335
Bel Air South,Bel Air South,MD,Maryland,24025,Harford,39.5051,-76.3197
Antelope,Antelope,CA,California,6067,Sacramento,38.7153,-121.361
Kyle,Kyle,TX,Texas,48209,Hays,29.9937,-97.8859
Monroe,Monroe,MI,Michigan,26115,Monroe,41.9154,-83.385
Lincoln,Lincoln,CA,California,6061,Placer,38.8759,-121.2916
Ocoee,Ocoee,FL,Florida,12095,Orange,28.5787,-81.5338
Burleson,Burleson,TX,Texas,48251,Johnson,32.517,-97.3343
La Mirada,La Mirada,CA,California,6037,Los Angeles,33.9025,-118.0093
Farmers Branch,Farmers Branch,TX,Texas,48113,Dallas,32.9272,-96.8804
East Lansing,East Lansing,MI,Michigan,26065,Ingham,42.748,-84.4835
Uniontown,Uniontown,PA,Pennsylvania,42051,Fayette,39.8994,-79.7244
Jeffersonville,Jeffersonville,IN,Indiana,18019,Clark,38.3376,-85.7026
Winder,Winder,GA,Georgia,13013,Barrow,33.9917,-83.7218
Wauwatosa,Wauwatosa,WI,Wisconsin,55079,Milwaukee,43.0615,-88.0347
Littleton,Littleton,CO,Colorado,8005,Arapahoe,39.5915,-105.0188
Cumberland,Cumberland,MD,Maryland,24001,Allegany,39.6515,-78.7585
Cedar Hill,Cedar Hill,TX,Texas,48113,Dallas,32.581,-96.9591
Carrollton,Carrollton,GA,Georgia,13045,Carroll,33.5817,-85.0837
Rancho Santa Margarita,Rancho Santa Margarita,CA,California,6059,Orange,33.6318,-117.5989
Beavercreek,Beavercreek,OH,Ohio,39057,Greene,39.731,-84.0624
Niagara Falls,Niagara Falls,NY,New York,36063,Niagara,43.0921,-79.0147
McLean,McLean,VA,Virginia,51059,Fairfax,38.9436,-77.1943
North Highlands,North Highlands,CA,California,6067,Sacramento,38.6713,-121.3721
East Providence,East Providence,RI,Rhode Island,44007,Providence,41.8065,-71.3565
Florin,Florin,CA,California,6067,Sacramento,38.4832,-121.4042
East Honolulu,East Honolulu,HI,Hawaii,15003,Honolulu,21.2975,-157.7211
Chesterfield,Chesterfield,MO,Missouri,29189,St. Louis,38.6588,-90.5804
Covina,Covina,CA,California,6037,Los Angeles,34.0903,-117.8817
Bothell,Bothell,WA,Washington,53033,King,47.7735,-122.2044
Glenview,Glenview,IL,Illinois,17031,Cook,42.0825,-87.8216
Mentor,Mentor,OH,Ohio,39085,Lake,41.6895,-81.3361
Keller,Keller,TX,Texas,48439,Tarrant,32.9337,-97.2255
Danville,Danville,IL,Illinois,17183,Vermilion,40.1423,-87.6114
Spring Hill,Spring Hill,TN,Tennessee,47119,Maury,35.7438,-86.9116
Roseville,Roseville,MI,Michigan,26099,Macomb,42.5074,-82.9369
Elmhurst,Elmhurst,IL,Illinois,17043,DuPage,41.8973,-87.9432
New Philadelphia,New Philadelphia,OH,Ohio,39157,Tuscarawas,40.486,-81.4402
Sandusky,Sandusky,OH,Ohio,39043,Erie,41.4437,-82.7149
El Dorado Hills,El Dorado Hills,CA,California,6017,El Dorado,38.675,-121.049
Salina,Salina,KS,Kansas,20169,Saline,38.8137,-97.6143
Euclid,Euclid,OH,Ohio,39035,Cuyahoga,41.5904,-81.5188
Kingman,Kingman,AZ,Arizona,4015,Mohave,35.217,-114.0105
Everett,Everett,MA,Massachusetts,25017,Middlesex,42.4064,-71.0545
Farmington,Farmington,MO,Missouri,29187,St. Francois,37.7821,-90.4288
Weatherford,Weatherford,TX,Texas,48367,Parker,32.7536,-97.7723
Middletown,Middletown,CT,Connecticut,9007,Middlesex,41.5476,-72.6549
Roseburg,Roseburg,OR,Oregon,41019,Douglas,43.2232,-123.3518
Biloxi,Biloxi,MS,Mississippi,28047,Harrison,30.4422,-88.9512
Leavenworth,Leavenworth,KS,Kansas,20103,Leavenworth,39.3239,-94.924
Fort Pierce,Fort Pierce,FL,Florida,12111,St. Lucie,27.4256,-80.3431
Winter Garden,Winter Garden,FL,Florida,12095,Orange,28.5421,-81.5966
Oro Valley,Oro Valley,AZ,Arizona,4019,Pima,32.4208,-110.9768
Morgan Hill,Morgan Hill,CA,California,6085,Santa Clara,37.1326,-121.6417
Potomac,Potomac,MD,Maryland,24031,Montgomery,39.0141,-77.1943
Pinehurst,Pinehurst,NC,North Carolina,37125,Moore,35.1922,-79.4684
Danville,Danville,VA,Virginia,51590,Danville,36.5831,-79.4087
Rockwall,Rockwall,TX,Texas,48397,Rockwall,32.9169,-96.4377
Coachella,Coachella,CA,California,6065,Riverside,33.6905,-116.143
Wake Forest,Wake Forest,NC,North Carolina,37183,Wake,35.9629,-78.5141
Pearl City,Pearl City,HI,Hawaii,15003,Honolulu,21.4031,-157.9566
Tupelo,Tupelo,MS,Mississippi,28081,Lee,34.2692,-88.7318
Attleboro,Attleboro,MA,Massachusetts,25005,Bristol,41.9311,-71.295
Pine Bluff,Pine Bluff,AR,Arkansas,5069,Jefferson,34.2116,-92.0178
Oakland Park,Oakland Park,FL,Florida,12011,Broward,26.178,-80.1528
Marion,Marion,OH,Ohio,39101,Marion,40.5933,-83.1237
Hilo,Hilo,HI,Hawaii,15001,Hawaii,19.6886,-155.0864
Lufkin,Lufkin,TX,Texas,48005,Angelina,31.3217,-94.7277
Altadena,Altadena,CA,California,6037,Los Angeles,34.1928,-118.1345
Manitowoc,Manitowoc,WI,Wisconsin,55071,Manitowoc,44.0991,-87.6811
Lake Ridge,Lake Ridge,VA,Virginia,51153,Prince William,38.6843,-77.3059
Selma,Selma,CA,California,6019,Fresno,36.5715,-119.6143
Strongsville,Strongsville,OH,Ohio,39035,Cuyahoga,41.3128,-81.8313
Danville,Danville,CA,California,6013,Contra Costa,37.8121,-121.9698
Quincy,Quincy,IL,Illinois,17001,Adams,39.9335,-91.3799
Lancaster,Lancaster,OH,Ohio,39045,Fairfield,39.7249,-82.6049
Riverton,Riverton,UT,Utah,49035,Salt Lake,40.5177,-111.9635
The Colony,The Colony,TX,Texas,48121,Denton,33.0925,-96.8977
Urbandale,Urbandale,IA,Iowa,19153,Polk,41.639,-93.7813
Plainfield,Plainfield,IL,Illinois,17197,Will,41.6206,-88.2252
Lombard,Lombard,IL,Illinois,17043,DuPage,41.8742,-88.0157
Prescott,Prescott,AZ,Arizona,4025,Yavapai,34.585,-112.4475
North Lauderdale,North Lauderdale,FL,Florida,12011,Broward,26.2113,-80.2209
Eureka,Eureka,CA,California,6023,Humboldt,40.7942,-124.1568
Hackensack,Hackensack,NJ,New Jersey,34003,Bergen,40.889,-74.0461
Sayreville,Sayreville,NJ,New Jersey,34023,Middlesex,40.4656,-74.3237
Altamonte Springs,Altamonte Springs,FL,Florida,12117,Seminole,28.6615,-81.3953
Del Rio,Del Rio,TX,Texas,48465,Val Verde,29.3708,-100.88
Cleveland Heights,Cleveland Heights,OH,Ohio,39035,Cuyahoga,41.5112,-81.5636
Bountiful,Bountiful,UT,Utah,49011,Davis,40.8722,-111.8647
Desert Hot Springs,Desert Hot Springs,CA,California,6065,Riverside,33.9551,-116.543
Peachtree Corners,Peachtree Corners,GA,Georgia,13135,Gwinnett,33.967,-84.2319
Haltom City,Haltom City,TX,Texas,48439,Tarrant,32.8176,-97.2707
Ormond Beach,Ormond Beach,FL,Florida,12127,Volusia,29.296,-81.1003
Cutler Bay,Cutler Bay,FL,Florida,12086,Miami-Dade,25.5765,-80.3356
Trujillo Alto,Trujillo Alto,PR,Puerto Rico,72139,Trujillo Alto,18.3601,-66.0103
Adrian,Adrian,MI,Michigan,26091,Lenawee,41.8994,-84.0446
Goose Creek,Goose Creek,SC,South Carolina,45015,Berkeley,32.9925,-80.0054
Moorhead,Moorhead,MN,Minnesota,27027,Clay,46.8673,-96.7461
Westfield,Westfield,IN,Indiana,18057,Hamilton,40.0333,-86.1532
Concord,Concord,NH,New Hampshire,33013,Merrimack,43.2305,-71.5595
Annandale,Annandale,VA,Virginia,51059,Fairfax,38.8324,-77.196
Rohnert Park,Rohnert Park,CA,California,6097,Sonoma,38.348,-122.6964
Brea,Brea,CA,California,6059,Orange,33.9254,-117.8656
Klamath Falls,Klamath Falls,OR,Oregon,41035,Klamath,42.2191,-121.7754
Salem,Salem,MA,Massachusetts,25009,Essex,42.5129,-70.902
Channelview,Channelview,TX,Texas,48201,Harris,29.7914,-95.1145
North Miami Beach,North Miami Beach,FL,Florida,12086,Miami-Dade,25.9302,-80.166
Whitney,Whitney,NV,Nevada,32003,Clark,36.1005,-115.038
Freeport,Freeport,NY,New York,36059,Nassau,40.6515,-73.585
Centralia,Centralia,WA,Washington,53041,Lewis,46.7226,-122.9696
Gallatin,Gallatin,TN,Tennessee,47165,Sumner,36.3782,-86.4696
Stevens Point,Stevens Point,WI,Wisconsin,55097,Portage,44.5241,-89.5508
San Bruno,San Bruno,CA,California,6081,San Mateo,37.6254,-122.4313
Burke,Burke,VA,Virginia,51059,Fairfax,38.7773,-77.2633
Brentwood,Brentwood,TN,Tennessee,47187,Williamson,35.9918,-86.7758
North Fort Myers,North Fort Myers,FL,Florida,12071,Lee,26.7243,-81.8491
Hicksville,Hicksville,NY,New York,36059,Nassau,40.7637,-73.5245
West Babylon,West Babylon,NY,New York,36103,Suffolk,40.7112,-73.3567
Edmonds,Edmonds,WA,Washington,53061,Snohomish,47.8115,-122.3533
Apache Junction,Apache Junction,AZ,Arizona,4021,Pinal,33.3985,-111.5351
Fairfield,Fairfield,OH,Ohio,39017,Butler,39.3301,-84.5409
Oakley,Oakley,CA,California,6013,Contra Costa,37.9929,-121.6951
Hutchinson,Hutchinson,KS,Kansas,20155,Reno,38.0671,-97.9081
Greenwood,Greenwood,SC,South Carolina,45047,Greenwood,34.1945,-82.1542
Richmond,Richmond,IN,Indiana,18177,Wayne,39.8318,-84.8905
Linden,Linden,NJ,New Jersey,34039,Union,40.6251,-74.2381
Puyallup,Puyallup,WA,Washington,53053,Pierce,47.1794,-122.2902
Huntsville,Huntsville,TX,Texas,48471,Walker,30.705,-95.5544
Urbana,Urbana,IL,Illinois,17019,Champaign,40.1106,-88.1972
Beverly,Beverly,MA,Massachusetts,25009,Essex,42.5681,-70.8627
Clovis,Clovis,NM,New Mexico,35009,Curry,34.4376,-103.1923
Statesboro,Statesboro,GA,Georgia,13031,Bulloch,32.4376,-81.775
Hobbs,Hobbs,NM,New Mexico,35025,Lea,32.7282,-103.16
McMinnville,McMinnville,OR,Oregon,41071,Yamhill,45.211,-123.1918
Schertz,Schertz,TX,Texas,48187,Guadalupe,29.5649,-98.2537
Bell Gardens,Bell Gardens,CA,California,6037,Los Angeles,33.9663,-118.155
Oviedo,Oviedo,FL,Florida,12117,Seminole,28.658,-81.1872
Odenton,Odenton,MD,Maryland,24003,Anne Arundel,39.0661,-76.6939
Grove City,Grove City,OH,Ohio,39049,Franklin,39.8659,-83.0694
Campbell,Campbell,CA,California,6085,Santa Clara,37.2802,-121.9538
Wentzville,Wentzville,MO,Missouri,29183,St. Charles,38.8152,-90.8667
Woonsocket,Woonsocket,RI,Rhode Island,44007,Providence,42.001,-71.4993
La Quinta,La Quinta,CA,California,6065,Riverside,33.6536,-116.2785
Weslaco,Weslaco,TX,Texas,48215,Hidalgo,26.1648,-97.9898
Zanesville,Zanesville,OH,Ohio,39119,Muskingum,39.9565,-82.0132
Newnan,Newnan,GA,Georgia,13077,Coweta,33.3766,-84.7761
Shakopee,Shakopee,MN,Minnesota,27139,Scott,44.7744,-93.4764
Brighton,Brighton,CO,Colorado,8001,Adams,39.9716,-104.7964
Catonsville,Catonsville,MD,Maryland,24005,Baltimore,39.2646,-76.7424
Rancho Palos Verdes,Rancho Palos Verdes,CA,California,6037,Los Angeles,33.7554,-118.3637
Mableton,Mableton,GA,Georgia,13067,Cobb,33.8132,-84.5656
Coppell,Coppell,TX,Texas,48113,Dallas,32.9638,-96.9905
Linton Hall,Linton Hall,VA,Virginia,51153,Prince William,38.7551,-77.575
Moline,Moline,IL,Illinois,17161,Rock Island,41.4821,-90.4921
Delaware,Delaware,OH,Ohio,39041,Delaware,40.2866,-83.0747
Westfield,Westfield,MA,Massachusetts,25013,Hampden,42.1382,-72.7561
Shelton,Shelton,CT,Connecticut,9001,Fairfield,41.306,-73.1383
Greenacres,Greenacres,FL,Florida,12099,Palm Beach,26.6272,-80.1371
Westerville,Westerville,OH,Ohio,39049,Franklin,40.1241,-82.9209
Manassas,Manassas,VA,Virginia,51683,Manassas,38.7479,-77.4839
Kearny,Kearny,NJ,New Jersey,34017,Hudson,40.7528,-74.1202
Los Banos,Los Banos,CA,California,6047,Merced,37.063,-120.8406
Richmond,Richmond,KY,Kentucky,21151,Madison,37.7306,-84.2926
Spanish Fork,Spanish Fork,UT,Utah,49049,Utah,40.1101,-111.6406
Belleville,Belleville,IL,Illinois,17163,St. Clair,38.5165,-89.99
Maplewood,Maplewood,MN,Minnesota,27123,Ramsey,44.9842,-93.0247
Wilkes-Barre,Wilkes-Barre,PA,Pennsylvania,42079,Luzerne,41.2468,-75.8759
Pottsville,Pottsville,PA,Pennsylvania,42107,Schuylkill,40.6798,-76.2092
Columbia,Columbia,TN,Tennessee,47119,Maury,35.6235,-87.0486
Bartlett,Bartlett,IL,Illinois,17031,Cook,41.9803,-88.2069
Bluefield,Bluefield,WV,West Virginia,54055,Mercer,37.2608,-81.2143
Fitchburg,Fitchburg,MA,Massachusetts,25027,Worcester,42.5912,-71.8156
Marion,Marion,IN,Indiana,18053,Grant,40.5496,-85.66
Cedar Falls,Cedar Falls,IA,Iowa,19013,Black Hawk,42.5195,-92.4534
Buffalo Grove,Buffalo Grove,IL,Illinois,17031,Cook,42.1673,-87.9616
Jamestown,Jamestown,NY,New York,36013,Chautauqua,42.0975,-79.2366
Woodlawn,Woodlawn,MD,Maryland,24005,Baltimore,39.3054,-76.7489
Clarksburg,Clarksburg,WV,West Virginia,54033,Harrison,39.2863,-80.323
Royal Palm Beach,Royal Palm Beach,FL,Florida,12099,Palm Beach,26.7038,-80.2241
Marion,Marion,IA,Iowa,19113,Linn,42.045,-91.5846
Covington,Covington,KY,Kentucky,21117,Kenton,39.0334,-84.5166
Coram,Coram,NY,New York,36103,Suffolk,40.8813,-73.0059
Friendswood,Friendswood,TX,Texas,48167,Galveston,29.5111,-95.1979
Indian Trail,Indian Trail,NC,North Carolina,37179,Union,35.0698,-80.6457
Woburn,Woburn,MA,Massachusetts,25017,Middlesex,42.4869,-71.1543
The Acreage,The Acreage,FL,Florida,12099,Palm Beach,26.7741,-80.2779
Holyoke,Holyoke,MA,Massachusetts,25013,Hampden,42.2125,-72.6411
Montclair,Montclair,CA,California,6071,San Bernardino,34.0714,-117.698
South Valley,South Valley,NM,New Mexico,35001,Bernalillo,35.0092,-106.6819
Torrington,Torrington,CT,Connecticut,9005,Litchfield,41.8349,-73.1281
Cedar City,Cedar City,UT,Utah,49021,Iron,37.6834,-113.0956
San Gabriel,San Gabriel,CA,California,6037,Los Angeles,34.0948,-118.099
Hallandale Beach,Hallandale Beach,FL,Florida,12011,Broward,25.9854,-80.1423
Crystal Lake,Crystal Lake,IL,Illinois,17111,McHenry,42.2333,-88.3351
Calexico,Calexico,CA,California,6025,Imperial,32.6849,-115.4944
Lake Oswego,Lake Oswego,OR,Oregon,41005,Clackamas,45.413,-122.7003
Amherst,Amherst,MA,Massachusetts,25015,Hampshire,42.3645,-72.5069
Muskogee,Muskogee,OK,Oklahoma,40101,Muskogee,35.7431,-95.3568
Romeoville,Romeoville,IL,Illinois,17197,Will,41.6318,-88.0996
Plant City,Plant City,FL,Florida,12057,Hillsborough,28.014,-82.1201
Keizer,Keizer,OR,Oregon,41047,Marion,45.0029,-123.0241
New Berlin,New Berlin,WI,Wisconsin,55133,Waukesha,42.9726,-88.1291
Chelsea,Chelsea,MA,Massachusetts,25025,Suffolk,42.3959,-71.0325
La Puente,La Puente,CA,California,6037,Los Angeles,34.0323,-117.9533
Roy,Roy,UT,Utah,49057,Weber,41.1715,-112.0485
Security-Widefield,Security-Widefield,CO,Colorado,8041,El Paso,38.7489,-104.7142
Marlborough,Marlborough,MA,Massachusetts,25017,Middlesex,42.3494,-71.5468
Milton,Milton,GA,Georgia,13121,Fulton,34.1353,-84.3138
Issaquah,Issaquah,WA,Washington,53033,King,47.544,-122.0471
Waipahu,Waipahu,HI,Hawaii,15003,Honolulu,21.3858,-158.0103
Essex,Essex,MD,Maryland,24005,Baltimore,39.3024,-76.4457
Bartlesville,Bartlesville,OK,Oklahoma,40147,Washington,36.7357,-95.9453
Lancaster,Lancaster,TX,Texas,48113,Dallas,32.5922,-96.7737
Streamwood,Streamwood,IL,Illinois,17031,Cook,42.0209,-88.1778
Germantown,Germantown,TN,Tennessee,47157,Shelby,35.0829,-89.7825
Annapolis,Annapolis,MD,Maryland,24003,Anne Arundel,38.9706,-76.5047
Carol Stream,Carol Stream,IL,Illinois,17043,DuPage,41.9182,-88.1308
Asheboro,Asheboro,NC,North Carolina,37151,Randolph,35.7158,-79.8129
Culver City,Culver City,CA,California,6037,Los Angeles,34.0058,-118.3968
Kalispell,Kalispell,MT,Montana,30029,Flathead,48.2156,-114.3262
Arecibo,Arecibo,PR,Puerto Rico,72013,Arecibo,18.4491,-66.7387
Lynnwood,Lynnwood,WA,Washington,53061,Snohomish,47.8284,-122.3033
Mooresville,Mooresville,NC,North Carolina,37097,Iredell,35.5849,-80.8265
Brookfield,Brookfield,WI,Wisconsin,55133,Waukesha,43.064,-88.1231
Crestview,Crestview,FL,Florida,12091,Okaloosa,30.748,-86.5784
Horizon West,Horizon West,FL,Florida,12095,Orange,28.4417,-81.6145
Clinton,Clinton,MD,Maryland,24033,Prince George's,38.7499,-76.9063
Moses Lake,Moses Lake,WA,Washington,53025,Grant,47.128,-119.2761
New Castle,New Castle,PA,Pennsylvania,42073,Lawrence,40.9956,-80.3459
Olive Branch,Olive Branch,MS,Mississippi,28033,DeSoto,34.961,-89.8469
Enterprise,Enterprise,AL,Alabama,1031,Coffee,31.3276,-85.8459
Sun City,Sun City,AZ,Arizona,4013,Maricopa,33.6165,-112.2819
Frankfort,Frankfort,KY,Kentucky,21073,Franklin,38.1924,-84.8643
Northglenn,Northglenn,CO,Colorado,8001,Adams,39.9108,-104.9783
Warren,Warren,OH,Ohio,39155,Trumbull,41.239,-80.8174
Duncanville,Duncanville,TX,Texas,48113,Dallas,32.646,-96.9127
Hurst,Hurst,TX,Texas,48439,Tarrant,32.8353,-97.1808
Clermont,Clermont,FL,Florida,12069,Lake,28.5402,-81.7259
Wheeling,Wheeling,IL,Illinois,17031,Cook,42.1308,-87.924
Fort Lee,Fort Lee,NJ,New Jersey,34003,Bergen,40.8509,-73.9712
Pacifica,Pacifica,CA,California,6081,San Mateo,37.6112,-122.4781
Lake Worth,Lake Worth,FL,Florida,12099,Palm Beach,26.6196,-80.0591
Lebanon,Lebanon,TN,Tennessee,47189,Wilson,36.204,-86.3481
Kendall West,Kendall West,FL,Florida,12086,Miami-Dade,25.7065,-80.4388
Land O' Lakes,Land O' Lakes,FL,Florida,12101,Pasco,28.2075,-82.4476
Eagle Mountain,Eagle Mountain,UT,Utah,49049,Utah,40.3137,-112.0114
Reynoldsburg,Reynoldsburg,OH,Ohio,39049,Franklin,39.9587,-82.7944
Oxford,Oxford,MS,Mississippi,28071,Lafayette,34.3627,-89.5336
Rosenberg,Rosenberg,TX,Texas,48157,Fort Bend,29.546,-95.822
Martinez,Martinez,CA,California,6013,Contra Costa,37.9985,-122.116
Pleasant Grove,Pleasant Grove,UT,Utah,49049,Utah,40.3716,-111.7412
La Presa,La Presa,CA,California,6073,San Diego,32.711,-117.0027
Severna Park,Severna Park,MD,Maryland,24003,Anne Arundel,39.087,-76.5687
Huber Heights,Huber Heights,OH,Ohio,39113,Montgomery,39.8595,-84.113
Stanton,Stanton,CA,California,6059,Orange,33.8002,-117.9935
East Meadow,East Meadow,NY,New York,36059,Nassau,40.7197,-73.5604
Menomonee Falls,Menomonee Falls,WI,Wisconsin,55133,Waukesha,43.1487,-88.1227
Granbury,Granbury,TX,Texas,48221,Hood,32.4484,-97.7685
Waxahachie,Waxahachie,TX,Texas,48139,Ellis,32.4032,-96.8444
Valrico,Valrico,FL,Florida,12057,Hillsborough,27.9193,-82.2293
Mission Bend,Mission Bend,TX,Texas,48157,Fort Bend,29.6948,-95.6657
Holly Springs,Holly Springs,NC,North Carolina,37183,Wake,35.653,-78.8397
Butler,Butler,PA,Pennsylvania,42019,Butler,40.8616,-79.8962
Albertville,Albertville,AL,Alabama,1095,Marshall,34.2634,-86.2107
London,London,KY,Kentucky,21125,Laurel,37.1175,-84.0767
Egypt Lake-Leto,Egypt Lake-Leto,FL,Florida,12057,Hillsborough,28.0177,-82.5062
Cottage Grove,Cottage Grove,MN,Minnesota,27163,Washington,44.8161,-92.9274
Kailua,Kailua,HI,Hawaii,15003,Honolulu,21.392,-157.7396
St. Marys,St. Marys,GA,Georgia,13039,Camden,30.7567,-81.5722
Mechanicsville,Mechanicsville,VA,Virginia,51085,Hanover,37.6262,-77.3561
Richmond West,Richmond West,FL,Florida,12086,Miami-Dade,25.6105,-80.4297
Cleburne,Cleburne,TX,Texas,48251,Johnson,32.357,-97.4152
Valley Stream,Valley Stream,NY,New York,36059,Nassau,40.6647,-73.7044
Hanover Park,Hanover Park,IL,Illinois,17043,DuPage,41.9819,-88.1447
Oswego,Oswego,NY,New York,36075,Oswego,43.4516,-76.5005
Navarre,Navarre,FL,Florida,12113,Santa Rosa,30.4174,-86.8907
Oregon City,Oregon City,OR,Oregon,41005,Clackamas,45.3415,-122.5927
Winter Springs,Winter Springs,FL,Florida,12117,Seminole,28.6889,-81.2704
Parkland,Parkland,WA,Washington,53053,Pierce,47.1417,-122.4376
Pahrump,Pahrump,NV,Nevada,32023,Nye,36.2411,-116.0176
Carpentersville,Carpentersville,IL,Illinois,17089,Kane,42.1227,-88.2895
Wildomar,Wildomar,CA,California,6065,Riverside,33.6173,-117.2582
Greenfield,Greenfield,WI,Wisconsin,55079,Milwaukee,42.9619,-88.0051
Braintree,Braintree,MA,Massachusetts,25021,Norfolk,42.2039,-71.0022
Rock Island,Rock Island,IL,Illinois,17161,Rock Island,41.4699,-90.5827
South Miami Heights,South Miami Heights,FL,Florida,12086,Miami-Dade,25.5886,-80.3862
Evans,Evans,GA,Georgia,13073,Columbia,33.5619,-82.1351
West Fargo,West Fargo,ND,North Dakota,38017,Cass,46.8573,-96.9057
Mount Juliet,Mount Juliet,TN,Tennessee,47189,Wilson,36.1991,-86.5114
San Juan,San Juan,TX,Texas,48215,Hidalgo,26.1903,-98.152
Oakton,Oakton,VA,Virginia,51059,Fairfax,38.8887,-77.3016
Georgetown,Georgetown,KY,Kentucky,21209,Scott,38.2249,-84.5482
Portage,Portage,IN,Indiana,18127,Porter,41.5866,-87.1792
Aventura,Aventura,FL,Florida,12086,Miami-Dade,25.9565,-80.1372
Owasso,Owasso,OK,Oklahoma,40143,Tulsa,36.2882,-95.8328
Commack,Commack,NY,New York,36103,Suffolk,40.8443,-73.2834
Park Ridge,Park Ridge,IL,Illinois,17031,Cook,42.0125,-87.8436
Foley,Foley,AL,Alabama,1003,Baldwin,30.3983,-87.6649
New Albany,New Albany,IN,Indiana,18043,Floyd,38.3089,-85.8234
Benton,Benton,AR,Arkansas,5125,Saline,34.5775,-92.5712
Meridian,Meridian,MS,Mississippi,28075,Lauderdale,32.3846,-88.6896
Bettendorf,Bettendorf,IA,Iowa,19163,Scott,41.5656,-90.4764
Dunedin,Dunedin,FL,Florida,12103,Pinellas,28.0329,-82.7863
Hilliard,Hilliard,OH,Ohio,39049,Franklin,40.0353,-83.1578
Merritt Island,Merritt Island,FL,Florida,12009,Brevard,28.3146,-80.6713
Phenix City,Phenix City,AL,Alabama,1113,Russell,32.4588,-85.0251
Addison,Addison,IL,Illinois,17043,DuPage,41.9314,-88.0085
West Hollywood,West Hollywood,CA,California,6037,Los Angeles,34.0882,-118.3718
Roseville,Roseville,MN,Minnesota,27123,Ramsey,45.0155,-93.1545
Oakville,Oakville,MO,Missouri,29189,St. Louis,38.4472,-90.3199
Tucker,Tucker,GA,Georgia,13089,DeKalb,33.8436,-84.2021
Moorpark,Moorpark,CA,California,6111,Ventura,34.2855,-118.877
Richfield,Richfield,MN,Minnesota,27053,Hennepin,44.8762,-93.2833
Monrovia,Monrovia,CA,California,6037,Los Angeles,34.165,-117.9921
Kearns,Kearns,UT,Utah,49035,Salt Lake,40.652,-112.0093
Oak Creek,Oak Creek,WI,Wisconsin,55079,Milwaukee,42.8803,-87.9009
Lincoln Park,Lincoln Park,MI,Michigan,26163,Wayne,42.2432,-83.1811
Claremont,Claremont,CA,California,6037,Los Angeles,34.1259,-117.7153
Oswego,Oswego,IL,Illinois,17093,Kendall,41.6834,-88.3372
Post Falls,Post Falls,ID,Idaho,16055,Kootenai,47.7213,-116.9385
Peachtree City,Peachtree City,GA,Georgia,13113,Fayette,33.3943,-84.5712
Lauderdale Lakes,Lauderdale Lakes,FL,Florida,12011,Broward,26.1682,-80.2017
French Valley,French Valley,CA,California,6065,Riverside,33.5998,-117.1069
Portsmouth,Portsmouth,OH,Ohio,39145,Scioto,38.7539,-82.9446
Shawnee,Shawnee,OK,Oklahoma,40125,Pottawatomie,35.3529,-96.965
Gillette,Gillette,WY,Wyoming,56005,Campbell,44.2752,-105.4983
Tooele,Tooele,UT,Utah,49045,Tooele,40.5393,-112.3082
Prattville,Prattville,AL,Alabama,1001,Autauga,32.4605,-86.4588
Woodburn,Woodburn,OR,Oregon,41047,Marion,45.1473,-122.8603
Watertown Town,Watertown Town,MA,Massachusetts,25017,Middlesex,42.37,-71.1774
Calumet City,Calumet City,IL,Illinois,17031,Cook,41.6134,-87.5505
San Juan Capistrano,San Juan Capistrano,CA,California,6059,Orange,33.5009,-117.6544
Foothill Farms,Foothill Farms,CA,California,6067,Sacramento,38.6867,-121.3475
Elmont,Elmont,NY,New York,36059,Nassau,40.7033,-73.7078
Franklin,Franklin,WI,Wisconsin,55079,Milwaukee,42.8854,-88.0104
Temple City,Temple City,CA,California,6037,Los Angeles,34.1021,-118.0579
Cooper City,Cooper City,FL,Florida,12011,Broward,26.0463,-80.2862
El Mirage,El Mirage,AZ,Arizona,4013,Maricopa,33.5905,-112.3271
Meadow Woods,Meadow Woods,FL,Florida,12095,Orange,28.3698,-81.3467
LaGrange,LaGrange,GA,Georgia,13285,Troup,33.0274,-85.0384
La Vergne,La Vergne,TN,Tennessee,47149,Rutherford,36.0203,-86.5582
Middletown,Middletown,DE,Delaware,10003,New Castle,39.4453,-75.7166
Mount Pleasant,Mount Pleasant,MI,Michigan,26073,Isabella,43.5966,-84.7759
Carrollwood,Carrollwood,FL,Florida,12057,Hillsborough,28.0577,-82.5149
Junction City,Junction City,KS,Kansas,20061,Geary,39.0271,-96.8496
Inver Grove Heights,Inver Grove Heights,MN,Minnesota,27037,Dakota,44.8247,-93.0596
Chillum,Chillum,MD,Maryland,24033,Prince George's,38.9667,-76.979
Monroe,Monroe,NC,North Carolina,37179,Union,35.0061,-80.5595
Randallstown,Randallstown,MD,Maryland,24005,Baltimore,39.3723,-76.8024
Bell,Bell,CA,California,6037,Los Angeles,33.9801,-118.1798
Gahanna,Gahanna,OH,Ohio,39049,Franklin,40.0251,-82.8637
Sanford,Sanford,NC,North Carolina,37105,Lee,35.4874,-79.1772
Riviera Beach,Riviera Beach,FL,Florida,12099,Palm Beach,26.7812,-80.0742
Wildwood,Wildwood,MO,Missouri,29189,St. Louis,38.5799,-90.6699
Upper Arlington,Upper Arlington,OH,Ohio,39049,Franklin,40.0272,-83.0704
Auburn,Auburn,CA,California,6061,Placer,38.895,-121.0778
Plainfield,Plainfield,IN,Indiana,18063,Hendricks,39.6953,-86.3717
Westmont,Westmont,CA,California,6037,Los Angeles,33.9417,-118.3018
Oak Harbor,Oak Harbor,WA,Washington,53029,Island,48.2965,-122.6333
Olney,Olney,MD,Maryland,24031,Montgomery,39.1465,-77.0715
Manhattan Beach,Manhattan Beach,CA,California,6037,Los Angeles,33.8895,-118.3972
New City,New City,NY,New York,36087,Rockland,41.1543,-73.9909
Owings Mills,Owings Mills,MD,Maryland,24005,Baltimore,39.4115,-76.7913
La Porte,La Porte,TX,Texas,48201,Harris,29.6689,-95.0484
Englewood,Englewood,CO,Colorado,8005,Arapahoe,39.6468,-104.9942
Brunswick,Brunswick,OH,Ohio,39103,Medina,41.2464,-81.8198
East Point,East Point,GA,Georgia,13121,Fulton,33.6696,-84.4701
DeLand,DeLand,FL,Florida,12127,Volusia,29.0224,-81.2873
Martinez,Martinez,GA,Georgia,13073,Columbia,33.5209,-82.0985
Pleasant Hill,Pleasant Hill,CA,California,6013,Contra Costa,37.954,-122.0759
Orangevale,Orangevale,CA,California,6067,Sacramento,38.6881,-121.2209
Merrillville,Merrillville,IN,Indiana,18089,Lake,41.4728,-87.3197
Stow,Stow,OH,Ohio,39153,Summit,41.1765,-81.4344
Buenaventura Lakes,Buenaventura Lakes,FL,Florida,12097,Osceola,28.3349,-81.3539
San Luis,San Luis,AZ,Arizona,4027,Yuma,32.4911,-114.7089
Oildale,Oildale,CA,California,6029,Kern,35.4249,-119.0279
Calhoun,Calhoun,GA,Georgia,13129,Gordon,34.4918,-84.9391
Leawood,Leawood,KS,Kansas,20091,Johnson,38.9076,-94.6258
Menlo Park,Menlo Park,CA,California,6081,San Mateo,37.4686,-122.1672
Sun Prairie,Sun Prairie,WI,Wisconsin,55025,Dane,43.1827,-89.2358
Dakota Ridge,Dakota Ridge,CO,Colorado,8059,Jefferson,39.6192,-105.1344
Arcata,Arcata,CA,California,6023,Humboldt,40.8615,-124.0757
Lockport,Lockport,NY,New York,36063,Niagara,43.1698,-78.6956
Pullman,Pullman,WA,Washington,53075,Whitman,46.734,-117.1669
Boardman,Boardman,OH,Ohio,39099,Mahoning,41.0334,-80.6671
Nacogdoches,Nacogdoches,TX,Texas,48347,Nacogdoches,31.6134,-94.6528
Kearney,Kearney,NE,Nebraska,31019,Buffalo,40.701,-99.0834
Vestavia Hills,Vestavia Hills,AL,Alabama,1073,Jefferson,33.4518,-86.7438
North Ridgeville,North Ridgeville,OH,Ohio,39093,Lorain,41.3851,-82.0194
Socorro,Socorro,TX,Texas,48141,El Paso,31.6384,-106.2601
Randolph,Randolph,MA,Massachusetts,25021,Norfolk,42.1778,-71.0539
Norristown,Norristown,PA,Pennsylvania,42091,Montgomery,40.1224,-75.3398
Montgomery Village,Montgomery Village,MD,Maryland,24031,Montgomery,39.1783,-77.1957
Redmond,Redmond,OR,Oregon,41017,Deschutes,44.2631,-121.1798
Firestone,Firestone,CO,Colorado,8123,Weld,40.1563,-104.9494
Goshen,Goshen,IN,Indiana,18039,Elkhart,41.5743,-85.8308
Butte,Butte,MT,Montana,30093,Silver Bow,45.902,-112.6571
Russellville,Russellville,AR,Arkansas,5115,Pope,35.2763,-93.1383
Grass Valley,Grass Valley,CA,California,6057,Nevada,39.2237,-121.0521
Parkland,Parkland,FL,Florida,12011,Broward,26.3218,-80.2533
University City,University City,MO,Missouri,29189,St. Louis,38.6657,-90.3315
Midvale,Midvale,UT,Utah,49035,Salt Lake,40.6148,-111.8928
Golden Glades,Golden Glades,FL,Florida,12086,Miami-Dade,25.9129,-80.2013
Franklin,Franklin,MA,Massachusetts,25021,Norfolk,42.0862,-71.4113
Kennesaw,Kennesaw,GA,Georgia,13067,Cobb,34.026,-84.6177
Adelanto,Adelanto,CA,California,6071,San Bernardino,34.5815,-117.4397
Ken Caryl,Ken Caryl,CO,Colorado,8059,Jefferson,39.577,-105.1144
Carlsbad,Carlsbad,NM,New Mexico,35015,Eddy,32.4011,-104.2389
University Place,University Place,WA,Washington,53053,Pierce,47.2147,-122.5461
Chester,Chester,PA,Pennsylvania,42045,Delaware,39.8456,-75.3718
Douglasville,Douglasville,GA,Georgia,13097,Douglas,33.7384,-84.7065
Salisbury,Salisbury,NC,North Carolina,37159,Rowan,35.6656,-80.4909
Laramie,Laramie,WY,Wyoming,56001,Albany,41.3099,-105.6085
Lake Stevens,Lake Stevens,WA,Washington,53061,Snohomish,48.0028,-122.096
Foster City,Foster City,CA,California,6081,San Mateo,37.5553,-122.2659
Valparaiso,Valparaiso,IN,Indiana,18127,Porter,41.4782,-87.0507
Fairborn,Fairborn,OH,Ohio,39057,Greene,39.801,-84.0093
Estero,Estero,FL,Florida,12071,Lee,26.4277,-81.7951
Mason,Mason,OH,Ohio,39165,Warren,39.3571,-84.3023
Cottonwood Heights,Cottonwood Heights,UT,Utah,49035,Salt Lake,40.6137,-111.8144
Kaneohe,Kaneohe,HI,Hawaii,15003,Honolulu,21.4062,-157.7904
Sonoma,Sonoma,CA,California,6097,Sonoma,38.2902,-122.4598
Beverly Hills,Beverly Hills,CA,California,6037,Los Angeles,34.0786,-118.4021
Galesburg,Galesburg,IL,Illinois,17095,Knox,40.9506,-90.3763
Warsaw,Warsaw,IN,Indiana,18085,Kosciusko,41.2448,-85.8464
San Dimas,San Dimas,CA,California,6037,Los Angeles,34.1082,-117.809
Glendale Heights,Glendale Heights,IL,Illinois,17043,DuPage,41.9196,-88.0785
Dana Point,Dana Point,CA,California,6059,Orange,33.4733,-117.6968
Midlothian,Midlothian,TX,Texas,48139,Ellis,32.4668,-96.9892
Newark,Newark,DE,Delaware,10003,New Castle,39.6776,-75.7573
Alamogordo,Alamogordo,NM,New Mexico,35035,Otero,32.8837,-105.9624
Alabaster,Alabaster,AL,Alabama,1117,Shelby,33.2198,-86.8225
Pikesville,Pikesville,MD,Maryland,24005,Baltimore,39.3893,-76.702
Fair Oaks,Fair Oaks,VA,Virginia,51059,Fairfax,38.8653,-77.3586
Deer Park,Deer Park,TX,Texas,48201,Harris,29.6898,-95.1151
Long Beach,Long Beach,NY,New York,36059,Nassau,40.5887,-73.666
Woodridge,Woodridge,IL,Illinois,17043,DuPage,41.7368,-88.0408
Bridgeton,Bridgeton,NJ,New Jersey,34011,Cumberland,39.4286,-75.2281
Greer,Greer,SC,South Carolina,45045,Greenville,34.9313,-82.2315
Springville,Springville,UT,Utah,49049,Utah,40.1638,-111.6206
Saratoga Springs,Saratoga Springs,UT,Utah,49049,Utah,40.3449,-111.9152
Copperas Cove,Copperas Cove,TX,Texas,48099,Coryell,31.1192,-97.914
American Fork,American Fork,UT,Utah,49049,Utah,40.3792,-111.7952
Franklin,Franklin,NJ,New Jersey,34037,Sussex,41.1101,-74.5886
Andover,Andover,MN,Minnesota,27003,Anoka,45.2571,-93.3265
Matthews,Matthews,NC,North Carolina,37119,Mecklenburg,35.1195,-80.7101
Woodstock,Woodstock,GA,Georgia,13057,Cherokee,34.1026,-84.509
Florence,Florence,KY,Kentucky,21015,Boone,38.99,-84.647
Northbrook,Northbrook,IL,Illinois,17031,Cook,42.1292,-87.8353
West Little River,West Little River,FL,Florida,12086,Miami-Dade,25.857,-80.2367
Fair Lawn,Fair Lawn,NJ,New Jersey,34003,Bergen,40.9359,-74.1177
St. Charles,St. Charles,IL,Illinois,17089,Kane,41.9193,-88.3109
Huntington Station,Huntington Station,NY,New York,36103,Suffolk,40.8446,-73.405
Fairmont,Fairmont,WV,West Virginia,54049,Marion,39.4768,-80.1491
Ridgecrest,Ridgecrest,CA,California,6029,Kern,35.6308,-117.6621
Massillon,Massillon,OH,Ohio,39151,Stark,40.7838,-81.5254
Spanaway,Spanaway,WA,Washington,53053,Pierce,47.0979,-122.4233
Starkville,Starkville,MS,Mississippi,28105,Oktibbeha,33.4608,-88.8297
Harker Heights,Harker Heights,TX,Texas,48027,Bell,31.0572,-97.6445
Elk Grove Village,Elk Grove Village,IL,Illinois,17031,Cook,42.0063,-87.9921
Kaysville,Kaysville,UT,Utah,49011,Davis,41.029,-111.9456
Lawndale,Lawndale,CA,California,6037,Los Angeles,33.8884,-118.3531
Southlake,Southlake,TX,Texas,48439,Tarrant,32.9545,-97.1503
Ferry Pass,Ferry Pass,FL,Florida,12033,Escambia,30.5203,-87.1903
Savage,Savage,MN,Minnesota,27139,Scott,44.7544,-93.3631
Des Moines,Des Moines,WA,Washington,53033,King,47.3915,-122.3157
Bethel Park,Bethel Park,PA,Pennsylvania,42003,Allegheny,40.3239,-80.0364
Princeton,Princeton,FL,Florida,12086,Miami-Dade,25.5396,-80.3971
Dania Beach,Dania Beach,FL,Florida,12011,Broward,26.0594,-80.1637
Spring Valley,Spring Valley,NY,New York,36087,Rockland,41.1151,-74.0486
Bowling Green,Bowling Green,OH,Ohio,39173,Wood,41.3773,-83.65
Springfield,Springfield,VA,Virginia,51059,Fairfax,38.7809,-77.1839
East Lake,East Lake,FL,Florida,12103,Pinellas,28.1205,-82.6868
College Park,College Park,MD,Maryland,24033,Prince George's,38.996,-76.9337
Coos Bay,Coos Bay,OR,Oregon,41011,Coos,43.3789,-124.233
Smithfield,Smithfield,NC,North Carolina,37101,Johnston,35.5131,-78.3497
Rome,Rome,NY,New York,36065,Oneida,43.226,-75.4909
Clearfield,Clearfield,UT,Utah,49011,Davis,41.103,-112.0237
Liberty,Liberty,MO,Missouri,29047,Clay,39.2394,-94.4191
Eastpointe,Eastpointe,MI,Michigan,26099,Macomb,42.4657,-82.9461
Franklin Square,Franklin Square,NY,New York,36059,Nassau,40.7002,-73.6775
Pekin,Pekin,IL,Illinois,17179,Tazewell,40.5679,-89.6262
Westlake,Westlake,OH,Ohio,39035,Cuyahoga,41.4524,-81.9295
Uniondale,Uniondale,NY,New York,36059,Nassau,40.7176,-73.5947
Chillicothe,Chillicothe,OH,Ohio,39141,Ross,39.3393,-82.9937
La Verne,La Verne,CA,California,6037,Los Angeles,34.1208,-117.7702
Juneau,Juneau,AK,Alaska,2110,Juneau,58.4546,-134.1739
Prairieville,Prairieville,LA,Louisiana,22005,Ascension,30.3151,-90.9571
Placerville,Placerville,CA,California,6017,El Dorado,38.7308,-120.7978
Bel Air North,Bel Air North,MD,Maryland,24025,Harford,39.5544,-76.3733
Redan,Redan,GA,Georgia,13089,DeKalb,33.7394,-84.1644
Martinsville,Martinsville,VA,Virginia,51690,Martinsville,36.6827,-79.8636
Pueblo West,Pueblo West,CO,Colorado,8101,Pueblo,38.3551,-104.7266
Garfield,Garfield,NJ,New Jersey,34003,Bergen,40.8791,-74.1085
Fallbrook,Fallbrook,CA,California,6073,San Diego,33.3693,-117.2259
Spring Valley,Spring Valley,CA,California,6073,San Diego,32.7316,-116.9766
